<?xml version="1.0" encoding="UTF-8"?>
<kml xmlns="http://www.opengis.net/kml/2.2">
<Document>
<name>KmlFile</name>

<Style id="traffic_camera">
<IconStyle>
    <Icon>
    <href>https://maps.google.com/mapfiles/kml/pushpin/ylw-pushpin.png</href>
    </Icon>
</IconStyle>
<BalloonStyle>
    <text>$[video]</text>
</BalloonStyle>
</Style>

            <Placemark>
                <name>De Beque, CO</name>
                <styleUrl>#traffic_camera</styleUrl>
                <ExtendedData>
                    <Data name="video">
                    <value>https://www.traffic-cams.com/de-beque/colorado/all</value>
                    </Data>
                </ExtendedData>
                <Point>
                    <coordinates>-108.23040771,39.31176376,0</coordinates>
                </Point>
            </Placemark>
        
            <Placemark>
                <name>Windsor, CO</name>
                <styleUrl>#traffic_camera</styleUrl>
                <ExtendedData>
                    <Data name="video">
                    <value>https://www.traffic-cams.com/windsor/colorado/all</value>
                    </Data>
                </ExtendedData>
                <Point>
                    <coordinates>-104.89944458,40.48366165,0</coordinates>
                </Point>
            </Placemark>
        
            <Placemark>
                <name>Parachute, CO</name>
                <styleUrl>#traffic_camera</styleUrl>
                <ExtendedData>
                    <Data name="video">
                    <value>https://www.traffic-cams.com/parachute/colorado/all</value>
                    </Data>
                </ExtendedData>
                <Point>
                    <coordinates>-108.03804016,39.44072723,0</coordinates>
                </Point>
            </Placemark>
        
            <Placemark>
                <name>Georgetown, CO</name>
                <styleUrl>#traffic_camera</styleUrl>
                <ExtendedData>
                    <Data name="video">
                    <value>https://www.traffic-cams.com/georgetown/colorado/all</value>
                    </Data>
                </ExtendedData>
                <Point>
                    <coordinates>-105.69694519,39.70611191,0</coordinates>
                </Point>
            </Placemark>
        
            <Placemark>
                <name>Deer Trail, CO</name>
                <styleUrl>#traffic_camera</styleUrl>
                <ExtendedData>
                    <Data name="video">
                    <value>https://www.traffic-cams.com/deer-trail/colorado/all</value>
                    </Data>
                </ExtendedData>
                <Point>
                    <coordinates>-104.06800079,39.59312057,0</coordinates>
                </Point>
            </Placemark>
        
            <Placemark>
                <name>Pine, CO</name>
                <styleUrl>#traffic_camera</styleUrl>
                <ExtendedData>
                    <Data name="video">
                    <value>https://www.traffic-cams.com/pine/colorado/all</value>
                    </Data>
                </ExtendedData>
                <Point>
                    <coordinates>-105.37411499,39.46667099,0</coordinates>
                </Point>
            </Placemark>
        
            <Placemark>
                <name>Platteville, CO</name>
                <styleUrl>#traffic_camera</styleUrl>
                <ExtendedData>
                    <Data name="video">
                    <value>https://www.traffic-cams.com/platteville/colorado/all</value>
                    </Data>
                </ExtendedData>
                <Point>
                    <coordinates>-104.80277252,40.21311951,0</coordinates>
                </Point>
            </Placemark>
        
            <Placemark>
                <name>Cascade, CO</name>
                <styleUrl>#traffic_camera</styleUrl>
                <ExtendedData>
                    <Data name="video">
                    <value>https://www.traffic-cams.com/cascade/colorado/all</value>
                    </Data>
                </ExtendedData>
                <Point>
                    <coordinates>-104.99368286,38.92131424,0</coordinates>
                </Point>
            </Placemark>
        
            <Placemark>
                <name>Niwot, CO</name>
                <styleUrl>#traffic_camera</styleUrl>
                <ExtendedData>
                    <Data name="video">
                    <value>https://www.traffic-cams.com/niwot/colorado/all</value>
                    </Data>
                </ExtendedData>
                <Point>
                    <coordinates>-105.17028046,40.10388947,0</coordinates>
                </Point>
            </Placemark>
        
            <Placemark>
                <name>Kremmling, CO</name>
                <styleUrl>#traffic_camera</styleUrl>
                <ExtendedData>
                    <Data name="video">
                    <value>https://www.traffic-cams.com/kremmling/colorado/all</value>
                    </Data>
                </ExtendedData>
                <Point>
                    <coordinates>-106.39546967,40.06322479,0</coordinates>
                </Point>
            </Placemark>
        
            <Placemark>
                <name>Wheat Ridge, CO</name>
                <styleUrl>#traffic_camera</styleUrl>
                <ExtendedData>
                    <Data name="video">
                    <value>https://www.traffic-cams.com/wheat-ridge/colorado/all</value>
                    </Data>
                </ExtendedData>
                <Point>
                    <coordinates>-105.09619141,39.77403641,0</coordinates>
                </Point>
            </Placemark>
        
            <Placemark>
                <name>Telluride, CO</name>
                <styleUrl>#traffic_camera</styleUrl>
                <ExtendedData>
                    <Data name="video">
                    <value>https://www.traffic-cams.com/telluride/colorado/all</value>
                    </Data>
                </ExtendedData>
                <Point>
                    <coordinates>-107.82137299,37.94002914,0</coordinates>
                </Point>
            </Placemark>
        
            <Placemark>
                <name>Bond, CO</name>
                <styleUrl>#traffic_camera</styleUrl>
                <ExtendedData>
                    <Data name="video">
                    <value>https://www.traffic-cams.com/bond/colorado/all</value>
                    </Data>
                </ExtendedData>
                <Point>
                    <coordinates>-106.67626953,39.86911774,0</coordinates>
                </Point>
            </Placemark>
        
            <Placemark>
                <name>Creede, CO</name>
                <styleUrl>#traffic_camera</styleUrl>
                <ExtendedData>
                    <Data name="video">
                    <value>https://www.traffic-cams.com/creede/colorado/all</value>
                    </Data>
                </ExtendedData>
                <Point>
                    <coordinates>-106.92768097,37.8163681,0</coordinates>
                </Point>
            </Placemark>
        
            <Placemark>
                <name>Rico, CO</name>
                <styleUrl>#traffic_camera</styleUrl>
                <ExtendedData>
                    <Data name="video">
                    <value>https://www.traffic-cams.com/rico/colorado/all</value>
                    </Data>
                </ExtendedData>
                <Point>
                    <coordinates>-108.02972412,37.69277954,0</coordinates>
                </Point>
            </Placemark>
        
            <Placemark>
                <name>Center, CO</name>
                <styleUrl>#traffic_camera</styleUrl>
                <ExtendedData>
                    <Data name="video">
                    <value>https://www.traffic-cams.com/center/colorado/all</value>
                    </Data>
                </ExtendedData>
                <Point>
                    <coordinates>-106.09062958,37.73429489,0</coordinates>
                </Point>
            </Placemark>
        
            <Placemark>
                <name>Towaoc, CO</name>
                <styleUrl>#traffic_camera</styleUrl>
                <ExtendedData>
                    <Data name="video">
                    <value>https://www.traffic-cams.com/towaoc/colorado/all</value>
                    </Data>
                </ExtendedData>
                <Point>
                    <coordinates>-108.71999359,37.20840836,0</coordinates>
                </Point>
            </Placemark>
        
            <Placemark>
                <name>Aurora, CO</name>
                <styleUrl>#traffic_camera</styleUrl>
                <ExtendedData>
                    <Data name="video">
                    <value>https://www.traffic-cams.com/aurora/colorado/all</value>
                    </Data>
                </ExtendedData>
                <Point>
                    <coordinates>-104.86461639,39.7367897,0</coordinates>
                </Point>
            </Placemark>
        
            <Placemark>
                <name>Idaho Springs, CO</name>
                <styleUrl>#traffic_camera</styleUrl>
                <ExtendedData>
                    <Data name="video">
                    <value>https://www.traffic-cams.com/idaho-springs/colorado/all</value>
                    </Data>
                </ExtendedData>
                <Point>
                    <coordinates>-105.59825897,39.74019241,0</coordinates>
                </Point>
            </Placemark>
        
            <Placemark>
                <name>Larkspur, CO</name>
                <styleUrl>#traffic_camera</styleUrl>
                <ExtendedData>
                    <Data name="video">
                    <value>https://www.traffic-cams.com/larkspur/colorado/all</value>
                    </Data>
                </ExtendedData>
                <Point>
                    <coordinates>-104.85458374,39.20108032,0</coordinates>
                </Point>
            </Placemark>
        
            <Placemark>
                <name>Briggsdale, CO</name>
                <styleUrl>#traffic_camera</styleUrl>
                <ExtendedData>
                    <Data name="video">
                    <value>https://www.traffic-cams.com/briggsdale/colorado/all</value>
                    </Data>
                </ExtendedData>
                <Point>
                    <coordinates>-104.28707123,40.63919067,0</coordinates>
                </Point>
            </Placemark>
        
            <Placemark>
                <name>Manitou Springs, CO</name>
                <styleUrl>#traffic_camera</styleUrl>
                <ExtendedData>
                    <Data name="video">
                    <value>https://www.traffic-cams.com/manitou-springs/colorado/all</value>
                    </Data>
                </ExtendedData>
                <Point>
                    <coordinates>-104.90583801,38.85499573,0</coordinates>
                </Point>
            </Placemark>
        
            <Placemark>
                <name>Fowler, CO</name>
                <styleUrl>#traffic_camera</styleUrl>
                <ExtendedData>
                    <Data name="video">
                    <value>https://www.traffic-cams.com/fowler/colorado/all</value>
                    </Data>
                </ExtendedData>
                <Point>
                    <coordinates>-104.02990723,38.12306976,0</coordinates>
                </Point>
            </Placemark>
        
            <Placemark>
                <name>Gateway, CO</name>
                <styleUrl>#traffic_camera</styleUrl>
                <ExtendedData>
                    <Data name="video">
                    <value>https://www.traffic-cams.com/gateway/colorado/all</value>
                    </Data>
                </ExtendedData>
                <Point>
                    <coordinates>-108.79134369,38.91513443,0</coordinates>
                </Point>
            </Placemark>
        
            <Placemark>
                <name>Pueblo, CO</name>
                <styleUrl>#traffic_camera</styleUrl>
                <ExtendedData>
                    <Data name="video">
                    <value>https://www.traffic-cams.com/pueblo/colorado/all</value>
                    </Data>
                </ExtendedData>
                <Point>
                    <coordinates>-104.58483124,38.28787613,0</coordinates>
                </Point>
            </Placemark>
        
            <Placemark>
                <name>Silverthorne, CO</name>
                <styleUrl>#traffic_camera</styleUrl>
                <ExtendedData>
                    <Data name="video">
                    <value>https://www.traffic-cams.com/silverthorne/colorado/all</value>
                    </Data>
                </ExtendedData>
                <Point>
                    <coordinates>-106.06138611,39.63750076,0</coordinates>
                </Point>
            </Placemark>
        
            <Placemark>
                <name>Hartsel, CO</name>
                <styleUrl>#traffic_camera</styleUrl>
                <ExtendedData>
                    <Data name="video">
                    <value>https://www.traffic-cams.com/hartsel/colorado/all</value>
                    </Data>
                </ExtendedData>
                <Point>
                    <coordinates>-105.79528046,39.02166748,0</coordinates>
                </Point>
            </Placemark>
        
            <Placemark>
                <name>Pagosa Springs, CO</name>
                <styleUrl>#traffic_camera</styleUrl>
                <ExtendedData>
                    <Data name="video">
                    <value>https://www.traffic-cams.com/pagosa-springs/colorado/all</value>
                    </Data>
                </ExtendedData>
                <Point>
                    <coordinates>-107.03849792,37.25234604,0</coordinates>
                </Point>
            </Placemark>
        
            <Placemark>
                <name>Fruita, CO</name>
                <styleUrl>#traffic_camera</styleUrl>
                <ExtendedData>
                    <Data name="video">
                    <value>https://www.traffic-cams.com/fruita/colorado/all</value>
                    </Data>
                </ExtendedData>
                <Point>
                    <coordinates>-108.72175598,39.16365433,0</coordinates>
                </Point>
            </Placemark>
        
            <Placemark>
                <name>Henderson, CO</name>
                <styleUrl>#traffic_camera</styleUrl>
                <ExtendedData>
                    <Data name="video">
                    <value>https://www.traffic-cams.com/henderson/colorado/all</value>
                    </Data>
                </ExtendedData>
                <Point>
                    <coordinates>-104.8718338,39.89830399,0</coordinates>
                </Point>
            </Placemark>
        
            <Placemark>
                <name>Brighton, CO</name>
                <styleUrl>#traffic_camera</styleUrl>
                <ExtendedData>
                    <Data name="video">
                    <value>https://www.traffic-cams.com/brighton/colorado/all</value>
                    </Data>
                </ExtendedData>
                <Point>
                    <coordinates>-104.81027985,39.98055267,0</coordinates>
                </Point>
            </Placemark>
        
            <Placemark>
                <name>Slater, CO</name>
                <styleUrl>#traffic_camera</styleUrl>
                <ExtendedData>
                    <Data name="video">
                    <value>https://www.traffic-cams.com/slater/colorado/all</value>
                    </Data>
                </ExtendedData>
                <Point>
                    <coordinates>-107.49717712,40.9479866,0</coordinates>
                </Point>
            </Placemark>
        
            <Placemark>
                <name>Mesa, CO</name>
                <styleUrl>#traffic_camera</styleUrl>
                <ExtendedData>
                    <Data name="video">
                    <value>https://www.traffic-cams.com/mesa/colorado/all</value>
                    </Data>
                </ExtendedData>
                <Point>
                    <coordinates>-108.10440063,39.16115952,0</coordinates>
                </Point>
            </Placemark>
        
            <Placemark>
                <name>Coaldale, CO</name>
                <styleUrl>#traffic_camera</styleUrl>
                <ExtendedData>
                    <Data name="video">
                    <value>https://www.traffic-cams.com/coaldale/colorado/all</value>
                    </Data>
                </ExtendedData>
                <Point>
                    <coordinates>-105.75722504,38.36555481,0</coordinates>
                </Point>
            </Placemark>
        
            <Placemark>
                <name>Alamosa, CO</name>
                <styleUrl>#traffic_camera</styleUrl>
                <ExtendedData>
                    <Data name="video">
                    <value>https://www.traffic-cams.com/alamosa/colorado/all</value>
                    </Data>
                </ExtendedData>
                <Point>
                    <coordinates>-105.87860107,37.47027588,0</coordinates>
                </Point>
            </Placemark>
        
            <Placemark>
                <name>Sterling, CO</name>
                <styleUrl>#traffic_camera</styleUrl>
                <ExtendedData>
                    <Data name="video">
                    <value>https://www.traffic-cams.com/sterling/colorado/all</value>
                    </Data>
                </ExtendedData>
                <Point>
                    <coordinates>-103.22118378,40.63061905,0</coordinates>
                </Point>
            </Placemark>
        
            <Placemark>
                <name>Ault, CO</name>
                <styleUrl>#traffic_camera</styleUrl>
                <ExtendedData>
                    <Data name="video">
                    <value>https://www.traffic-cams.com/ault/colorado/all</value>
                    </Data>
                </ExtendedData>
                <Point>
                    <coordinates>-104.73562622,40.59377289,0</coordinates>
                </Point>
            </Placemark>
        
            <Placemark>
                <name>Poncha Springs, CO</name>
                <styleUrl>#traffic_camera</styleUrl>
                <ExtendedData>
                    <Data name="video">
                    <value>https://www.traffic-cams.com/poncha-springs/colorado/all</value>
                    </Data>
                </ExtendedData>
                <Point>
                    <coordinates>-106.07666779,38.51277924,0</coordinates>
                </Point>
            </Placemark>
        
            <Placemark>
                <name>Johnstown, CO</name>
                <styleUrl>#traffic_camera</styleUrl>
                <ExtendedData>
                    <Data name="video">
                    <value>https://www.traffic-cams.com/johnstown/colorado/all</value>
                    </Data>
                </ExtendedData>
                <Point>
                    <coordinates>-104.9235611,40.33552551,0</coordinates>
                </Point>
            </Placemark>
        
            <Placemark>
                <name>Granby, CO</name>
                <styleUrl>#traffic_camera</styleUrl>
                <ExtendedData>
                    <Data name="video">
                    <value>https://www.traffic-cams.com/granby/colorado/all</value>
                    </Data>
                </ExtendedData>
                <Point>
                    <coordinates>-105.88991547,40.01283264,0</coordinates>
                </Point>
            </Placemark>
        
            <Placemark>
                <name>Colorado Springs, CO</name>
                <styleUrl>#traffic_camera</styleUrl>
                <ExtendedData>
                    <Data name="video">
                    <value>https://www.traffic-cams.com/colorado-springs/colorado/all</value>
                    </Data>
                </ExtendedData>
                <Point>
                    <coordinates>-104.82060242,38.83349991,0</coordinates>
                </Point>
            </Placemark>
        
            <Placemark>
                <name>Buena Vista, CO</name>
                <styleUrl>#traffic_camera</styleUrl>
                <ExtendedData>
                    <Data name="video">
                    <value>https://www.traffic-cams.com/buena-vista/colorado/all</value>
                    </Data>
                </ExtendedData>
                <Point>
                    <coordinates>-106.14711761,38.83800125,0</coordinates>
                </Point>
            </Placemark>
        
            <Placemark>
                <name>Rangely, CO</name>
                <styleUrl>#traffic_camera</styleUrl>
                <ExtendedData>
                    <Data name="video">
                    <value>https://www.traffic-cams.com/rangely/colorado/all</value>
                    </Data>
                </ExtendedData>
                <Point>
                    <coordinates>-108.79914856,40.08284378,0</coordinates>
                </Point>
            </Placemark>
        
            <Placemark>
                <name>New Castle, CO</name>
                <styleUrl>#traffic_camera</styleUrl>
                <ExtendedData>
                    <Data name="video">
                    <value>https://www.traffic-cams.com/new-castle/colorado/all</value>
                    </Data>
                </ExtendedData>
                <Point>
                    <coordinates>-107.54275513,39.57092285,0</coordinates>
                </Point>
            </Placemark>
        
            <Placemark>
                <name>Frisco, CO</name>
                <styleUrl>#traffic_camera</styleUrl>
                <ExtendedData>
                    <Data name="video">
                    <value>https://www.traffic-cams.com/frisco/colorado/all</value>
                    </Data>
                </ExtendedData>
                <Point>
                    <coordinates>-106.15638733,39.46888733,0</coordinates>
                </Point>
            </Placemark>
        
            <Placemark>
                <name>Moffat, CO</name>
                <styleUrl>#traffic_camera</styleUrl>
                <ExtendedData>
                    <Data name="video">
                    <value>https://www.traffic-cams.com/moffat/colorado/all</value>
                    </Data>
                </ExtendedData>
                <Point>
                    <coordinates>-105.84104919,38.04519653,0</coordinates>
                </Point>
            </Placemark>
        
            <Placemark>
                <name>Lazear, CO</name>
                <styleUrl>#traffic_camera</styleUrl>
                <ExtendedData>
                    <Data name="video">
                    <value>https://www.traffic-cams.com/lazear/colorado/all</value>
                    </Data>
                </ExtendedData>
                <Point>
                    <coordinates>-107.78111267,38.77999878,0</coordinates>
                </Point>
            </Placemark>
        
            <Placemark>
                <name>Two Buttes, CO</name>
                <styleUrl>#traffic_camera</styleUrl>
                <ExtendedData>
                    <Data name="video">
                    <value>https://www.traffic-cams.com/two-buttes/colorado/all</value>
                    </Data>
                </ExtendedData>
                <Point>
                    <coordinates>-102.32012939,37.57476044,0</coordinates>
                </Point>
            </Placemark>
        
            <Placemark>
                <name>Alma, CO</name>
                <styleUrl>#traffic_camera</styleUrl>
                <ExtendedData>
                    <Data name="video">
                    <value>https://www.traffic-cams.com/alma/colorado/all</value>
                    </Data>
                </ExtendedData>
                <Point>
                    <coordinates>-106.06222534,39.28388977,0</coordinates>
                </Point>
            </Placemark>
        
            <Placemark>
                <name>Eads, CO</name>
                <styleUrl>#traffic_camera</styleUrl>
                <ExtendedData>
                    <Data name="video">
                    <value>https://www.traffic-cams.com/eads/colorado/all</value>
                    </Data>
                </ExtendedData>
                <Point>
                    <coordinates>-102.50536346,38.44414139,0</coordinates>
                </Point>
            </Placemark>
        
            <Placemark>
                <name>Burlington, CO</name>
                <styleUrl>#traffic_camera</styleUrl>
                <ExtendedData>
                    <Data name="video">
                    <value>https://www.traffic-cams.com/burlington/colorado/all</value>
                    </Data>
                </ExtendedData>
                <Point>
                    <coordinates>-102.25827789,39.31064987,0</coordinates>
                </Point>
            </Placemark>
        
            <Placemark>
                <name>Dinosaur, CO</name>
                <styleUrl>#traffic_camera</styleUrl>
                <ExtendedData>
                    <Data name="video">
                    <value>https://www.traffic-cams.com/dinosaur/colorado/all</value>
                    </Data>
                </ExtendedData>
                <Point>
                    <coordinates>-108.96518707,40.25661087,0</coordinates>
                </Point>
            </Placemark>
        
            <Placemark>
                <name>Carbondale, CO</name>
                <styleUrl>#traffic_camera</styleUrl>
                <ExtendedData>
                    <Data name="video">
                    <value>https://www.traffic-cams.com/carbondale/colorado/all</value>
                    </Data>
                </ExtendedData>
                <Point>
                    <coordinates>-107.17101288,39.38542938,0</coordinates>
                </Point>
            </Placemark>
        
            <Placemark>
                <name>Vail, CO</name>
                <styleUrl>#traffic_camera</styleUrl>
                <ExtendedData>
                    <Data name="video">
                    <value>https://www.traffic-cams.com/vail/colorado/all</value>
                    </Data>
                </ExtendedData>
                <Point>
                    <coordinates>-106.4634552,39.62379456,0</coordinates>
                </Point>
            </Placemark>
        
            <Placemark>
                <name>Hudson, CO</name>
                <styleUrl>#traffic_camera</styleUrl>
                <ExtendedData>
                    <Data name="video">
                    <value>https://www.traffic-cams.com/hudson/colorado/all</value>
                    </Data>
                </ExtendedData>
                <Point>
                    <coordinates>-104.65320587,40.0605545,0</coordinates>
                </Point>
            </Placemark>
        
            <Placemark>
                <name>Rand, CO</name>
                <styleUrl>#traffic_camera</styleUrl>
                <ExtendedData>
                    <Data name="video">
                    <value>https://www.traffic-cams.com/rand/colorado/all</value>
                    </Data>
                </ExtendedData>
                <Point>
                    <coordinates>-106.18083191,40.45388794,0</coordinates>
                </Point>
            </Placemark>
        
            <Placemark>
                <name>Florence, CO</name>
                <styleUrl>#traffic_camera</styleUrl>
                <ExtendedData>
                    <Data name="video">
                    <value>https://www.traffic-cams.com/florence/colorado/all</value>
                    </Data>
                </ExtendedData>
                <Point>
                    <coordinates>-105.12322998,38.3850174,0</coordinates>
                </Point>
            </Placemark>
        
            <Placemark>
                <name>Evergreen, CO</name>
                <styleUrl>#traffic_camera</styleUrl>
                <ExtendedData>
                    <Data name="video">
                    <value>https://www.traffic-cams.com/evergreen/colorado/all</value>
                    </Data>
                </ExtendedData>
                <Point>
                    <coordinates>-105.31666565,39.6333313,0</coordinates>
                </Point>
            </Placemark>
        
            <Placemark>
                <name>Dupont, CO</name>
                <styleUrl>#traffic_camera</styleUrl>
                <ExtendedData>
                    <Data name="video">
                    <value>https://www.traffic-cams.com/dupont/colorado/all</value>
                    </Data>
                </ExtendedData>
                <Point>
                    <coordinates>-104.91139221,39.83805466,0</coordinates>
                </Point>
            </Placemark>
        
            <Placemark>
                <name>Aguilar, CO</name>
                <styleUrl>#traffic_camera</styleUrl>
                <ExtendedData>
                    <Data name="video">
                    <value>https://www.traffic-cams.com/aguilar/colorado/all</value>
                    </Data>
                </ExtendedData>
                <Point>
                    <coordinates>-104.67692566,37.39330292,0</coordinates>
                </Point>
            </Placemark>
        
            <Placemark>
                <name>Delta, CO</name>
                <styleUrl>#traffic_camera</styleUrl>
                <ExtendedData>
                    <Data name="video">
                    <value>https://www.traffic-cams.com/delta/colorado/all</value>
                    </Data>
                </ExtendedData>
                <Point>
                    <coordinates>-108.0604248,38.73488998,0</coordinates>
                </Point>
            </Placemark>
        
            <Placemark>
                <name>Colorado City, CO</name>
                <styleUrl>#traffic_camera</styleUrl>
                <ExtendedData>
                    <Data name="video">
                    <value>https://www.traffic-cams.com/colorado-city/colorado/all</value>
                    </Data>
                </ExtendedData>
                <Point>
                    <coordinates>-104.83472443,37.94527817,0</coordinates>
                </Point>
            </Placemark>
        
            <Placemark>
                <name>Penrose, CO</name>
                <styleUrl>#traffic_camera</styleUrl>
                <ExtendedData>
                    <Data name="video">
                    <value>https://www.traffic-cams.com/penrose/colorado/all</value>
                    </Data>
                </ExtendedData>
                <Point>
                    <coordinates>-105.01132202,38.43362045,0</coordinates>
                </Point>
            </Placemark>
        
            <Placemark>
                <name>Atwood, CO</name>
                <styleUrl>#traffic_camera</styleUrl>
                <ExtendedData>
                    <Data name="video">
                    <value>https://www.traffic-cams.com/atwood/colorado/all</value>
                    </Data>
                </ExtendedData>
                <Point>
                    <coordinates>-103.03929901,40.51743317,0</coordinates>
                </Point>
            </Placemark>
        
            <Placemark>
                <name>Fort Collins, CO</name>
                <styleUrl>#traffic_camera</styleUrl>
                <ExtendedData>
                    <Data name="video">
                    <value>https://www.traffic-cams.com/fort-collins/colorado/all</value>
                    </Data>
                </ExtendedData>
                <Point>
                    <coordinates>-105.10388184,40.5812912,0</coordinates>
                </Point>
            </Placemark>
        
            <Placemark>
                <name>Estes Park, CO</name>
                <styleUrl>#traffic_camera</styleUrl>
                <ExtendedData>
                    <Data name="video">
                    <value>https://www.traffic-cams.com/estes-park/colorado/all</value>
                    </Data>
                </ExtendedData>
                <Point>
                    <coordinates>-105.49416351,40.39361191,0</coordinates>
                </Point>
            </Placemark>
        
            <Placemark>
                <name>Wellington, CO</name>
                <styleUrl>#traffic_camera</styleUrl>
                <ExtendedData>
                    <Data name="video">
                    <value>https://www.traffic-cams.com/wellington/colorado/all</value>
                    </Data>
                </ExtendedData>
                <Point>
                    <coordinates>-105.03184509,40.7255249,0</coordinates>
                </Point>
            </Placemark>
        
            <Placemark>
                <name>Fairplay, CO</name>
                <styleUrl>#traffic_camera</styleUrl>
                <ExtendedData>
                    <Data name="video">
                    <value>https://www.traffic-cams.com/fairplay/colorado/all</value>
                    </Data>
                </ExtendedData>
                <Point>
                    <coordinates>-105.99941254,39.22561646,0</coordinates>
                </Point>
            </Placemark>
        
            <Placemark>
                <name>Whitewater, CO</name>
                <styleUrl>#traffic_camera</styleUrl>
                <ExtendedData>
                    <Data name="video">
                    <value>https://www.traffic-cams.com/whitewater/colorado/all</value>
                    </Data>
                </ExtendedData>
                <Point>
                    <coordinates>-108.39904022,38.97442245,0</coordinates>
                </Point>
            </Placemark>
        
            <Placemark>
                <name>Montrose, CO</name>
                <styleUrl>#traffic_camera</styleUrl>
                <ExtendedData>
                    <Data name="video">
                    <value>https://www.traffic-cams.com/montrose/colorado/all</value>
                    </Data>
                </ExtendedData>
                <Point>
                    <coordinates>-107.87518311,38.46783066,0</coordinates>
                </Point>
            </Placemark>
        
            <Placemark>
                <name>Longmont, CO</name>
                <styleUrl>#traffic_camera</styleUrl>
                <ExtendedData>
                    <Data name="video">
                    <value>https://www.traffic-cams.com/longmont/colorado/all</value>
                    </Data>
                </ExtendedData>
                <Point>
                    <coordinates>-105.10095215,40.1779213,0</coordinates>
                </Point>
            </Placemark>
        
            <Placemark>
                <name>Fountain, CO</name>
                <styleUrl>#traffic_camera</styleUrl>
                <ExtendedData>
                    <Data name="video">
                    <value>https://www.traffic-cams.com/fountain/colorado/all</value>
                    </Data>
                </ExtendedData>
                <Point>
                    <coordinates>-104.70046997,38.69956207,0</coordinates>
                </Point>
            </Placemark>
        
            <Placemark>
                <name>Parlin, CO</name>
                <styleUrl>#traffic_camera</styleUrl>
                <ExtendedData>
                    <Data name="video">
                    <value>https://www.traffic-cams.com/parlin/colorado/all</value>
                    </Data>
                </ExtendedData>
                <Point>
                    <coordinates>-106.67799377,38.50876236,0</coordinates>
                </Point>
            </Placemark>
        
            <Placemark>
                <name>Carr, CO</name>
                <styleUrl>#traffic_camera</styleUrl>
                <ExtendedData>
                    <Data name="video">
                    <value>https://www.traffic-cams.com/carr/colorado/all</value>
                    </Data>
                </ExtendedData>
                <Point>
                    <coordinates>-104.88586426,40.86655045,0</coordinates>
                </Point>
            </Placemark>
        
            <Placemark>
                <name>Mead, CO</name>
                <styleUrl>#traffic_camera</styleUrl>
                <ExtendedData>
                    <Data name="video">
                    <value>https://www.traffic-cams.com/mead/colorado/all</value>
                    </Data>
                </ExtendedData>
                <Point>
                    <coordinates>-104.9980545,40.23333359,0</coordinates>
                </Point>
            </Placemark>
        
            <Placemark>
                <name>Mc Coy, CO</name>
                <styleUrl>#traffic_camera</styleUrl>
                <ExtendedData>
                    <Data name="video">
                    <value>https://www.traffic-cams.com/mc-coy/colorado/all</value>
                    </Data>
                </ExtendedData>
                <Point>
                    <coordinates>-106.73090363,39.91337585,0</coordinates>
                </Point>
            </Placemark>
        
            <Placemark>
                <name>Coalmont, CO</name>
                <styleUrl>#traffic_camera</styleUrl>
                <ExtendedData>
                    <Data name="video">
                    <value>https://www.traffic-cams.com/coalmont/colorado/all</value>
                    </Data>
                </ExtendedData>
                <Point>
                    <coordinates>-106.53213501,40.53825378,0</coordinates>
                </Point>
            </Placemark>
        
            <Placemark>
                <name>Mack, CO</name>
                <styleUrl>#traffic_camera</styleUrl>
                <ExtendedData>
                    <Data name="video">
                    <value>https://www.traffic-cams.com/mack/colorado/all</value>
                    </Data>
                </ExtendedData>
                <Point>
                    <coordinates>-108.92959595,39.25536728,0</coordinates>
                </Point>
            </Placemark>
        
            <Placemark>
                <name>Crested Butte, CO</name>
                <styleUrl>#traffic_camera</styleUrl>
                <ExtendedData>
                    <Data name="video">
                    <value>https://www.traffic-cams.com/crested-butte/colorado/all</value>
                    </Data>
                </ExtendedData>
                <Point>
                    <coordinates>-106.9618988,38.86907959,0</coordinates>
                </Point>
            </Placemark>
        
            <Placemark>
                <name>Dillon, CO</name>
                <styleUrl>#traffic_camera</styleUrl>
                <ExtendedData>
                    <Data name="video">
                    <value>https://www.traffic-cams.com/dillon/colorado/all</value>
                    </Data>
                </ExtendedData>
                <Point>
                    <coordinates>-106.05734253,39.57482529,0</coordinates>
                </Point>
            </Placemark>
        
            <Placemark>
                <name>Hygiene, CO</name>
                <styleUrl>#traffic_camera</styleUrl>
                <ExtendedData>
                    <Data name="video">
                    <value>https://www.traffic-cams.com/hygiene/colorado/all</value>
                    </Data>
                </ExtendedData>
                <Point>
                    <coordinates>-105.18027496,40.18861008,0</coordinates>
                </Point>
            </Placemark>
        
            <Placemark>
                <name>Evans, CO</name>
                <styleUrl>#traffic_camera</styleUrl>
                <ExtendedData>
                    <Data name="video">
                    <value>https://www.traffic-cams.com/evans/colorado/all</value>
                    </Data>
                </ExtendedData>
                <Point>
                    <coordinates>-104.69709778,40.38025665,0</coordinates>
                </Point>
            </Placemark>
        
            <Placemark>
                <name>Arvada, CO</name>
                <styleUrl>#traffic_camera</styleUrl>
                <ExtendedData>
                    <Data name="video">
                    <value>https://www.traffic-cams.com/arvada/colorado/all</value>
                    </Data>
                </ExtendedData>
                <Point>
                    <coordinates>-105.08589935,39.80390167,0</coordinates>
                </Point>
            </Placemark>
        
            <Placemark>
                <name>Salida, CO</name>
                <styleUrl>#traffic_camera</styleUrl>
                <ExtendedData>
                    <Data name="video">
                    <value>https://www.traffic-cams.com/salida/colorado/all</value>
                    </Data>
                </ExtendedData>
                <Point>
                    <coordinates>-105.99781799,38.52590942,0</coordinates>
                </Point>
            </Placemark>
        
            <Placemark>
                <name>Woodland Park, CO</name>
                <styleUrl>#traffic_camera</styleUrl>
                <ExtendedData>
                    <Data name="video">
                    <value>https://www.traffic-cams.com/woodland-park/colorado/all</value>
                    </Data>
                </ExtendedData>
                <Point>
                    <coordinates>-105.06229401,38.99692917,0</coordinates>
                </Point>
            </Placemark>
        
            <Placemark>
                <name>Littleton, CO</name>
                <styleUrl>#traffic_camera</styleUrl>
                <ExtendedData>
                    <Data name="video">
                    <value>https://www.traffic-cams.com/littleton/colorado/all</value>
                    </Data>
                </ExtendedData>
                <Point>
                    <coordinates>-105.00440216,39.59942627,0</coordinates>
                </Point>
            </Placemark>
        
            <Placemark>
                <name>Cheraw, CO</name>
                <styleUrl>#traffic_camera</styleUrl>
                <ExtendedData>
                    <Data name="video">
                    <value>https://www.traffic-cams.com/cheraw/colorado/all</value>
                    </Data>
                </ExtendedData>
                <Point>
                    <coordinates>-103.50971985,38.10694504,0</coordinates>
                </Point>
            </Placemark>
        
            <Placemark>
                <name>Wiggins, CO</name>
                <styleUrl>#traffic_camera</styleUrl>
                <ExtendedData>
                    <Data name="video">
                    <value>https://www.traffic-cams.com/wiggins/colorado/all</value>
                    </Data>
                </ExtendedData>
                <Point>
                    <coordinates>-104.05281067,40.20565033,0</coordinates>
                </Point>
            </Placemark>
        
            <Placemark>
                <name>Black Hawk, CO</name>
                <styleUrl>#traffic_camera</styleUrl>
                <ExtendedData>
                    <Data name="video">
                    <value>https://www.traffic-cams.com/black-hawk/colorado/all</value>
                    </Data>
                </ExtendedData>
                <Point>
                    <coordinates>-105.50399017,39.8011055,0</coordinates>
                </Point>
            </Placemark>
        
            <Placemark>
                <name>Silverton, CO</name>
                <styleUrl>#traffic_camera</styleUrl>
                <ExtendedData>
                    <Data name="video">
                    <value>https://www.traffic-cams.com/silverton/colorado/all</value>
                    </Data>
                </ExtendedData>
                <Point>
                    <coordinates>-107.66668701,37.80899429,0</coordinates>
                </Point>
            </Placemark>
        
            <Placemark>
                <name>Indian Hills, CO</name>
                <styleUrl>#traffic_camera</styleUrl>
                <ExtendedData>
                    <Data name="video">
                    <value>https://www.traffic-cams.com/indian-hills/colorado/all</value>
                    </Data>
                </ExtendedData>
                <Point>
                    <coordinates>-105.23666382,39.6166687,0</coordinates>
                </Point>
            </Placemark>
        
            <Placemark>
                <name>New Raymer, CO</name>
                <styleUrl>#traffic_camera</styleUrl>
                <ExtendedData>
                    <Data name="video">
                    <value>https://www.traffic-cams.com/new-raymer/colorado/all</value>
                    </Data>
                </ExtendedData>
                <Point>
                    <coordinates>-103.83898163,40.68507767,0</coordinates>
                </Point>
            </Placemark>
        
            <Placemark>
                <name>Aspen, CO</name>
                <styleUrl>#traffic_camera</styleUrl>
                <ExtendedData>
                    <Data name="video">
                    <value>https://www.traffic-cams.com/aspen/colorado/all</value>
                    </Data>
                </ExtendedData>
                <Point>
                    <coordinates>-106.82359314,39.19514084,0</coordinates>
                </Point>
            </Placemark>
        
            <Placemark>
                <name>Eagle, CO</name>
                <styleUrl>#traffic_camera</styleUrl>
                <ExtendedData>
                    <Data name="video">
                    <value>https://www.traffic-cams.com/eagle/colorado/all</value>
                    </Data>
                </ExtendedData>
                <Point>
                    <coordinates>-106.75884247,39.6341362,0</coordinates>
                </Point>
            </Placemark>
        
            <Placemark>
                <name>Golden, CO</name>
                <styleUrl>#traffic_camera</styleUrl>
                <ExtendedData>
                    <Data name="video">
                    <value>https://www.traffic-cams.com/golden/colorado/all</value>
                    </Data>
                </ExtendedData>
                <Point>
                    <coordinates>-105.19152832,39.73054886,0</coordinates>
                </Point>
            </Placemark>
        
            <Placemark>
                <name>Commerce City, CO</name>
                <styleUrl>#traffic_camera</styleUrl>
                <ExtendedData>
                    <Data name="video">
                    <value>https://www.traffic-cams.com/commerce-city/colorado/all</value>
                    </Data>
                </ExtendedData>
                <Point>
                    <coordinates>-104.91134644,39.82587433,0</coordinates>
                </Point>
            </Placemark>
        
            <Placemark>
                <name>Mancos, CO</name>
                <styleUrl>#traffic_camera</styleUrl>
                <ExtendedData>
                    <Data name="video">
                    <value>https://www.traffic-cams.com/mancos/colorado/all</value>
                    </Data>
                </ExtendedData>
                <Point>
                    <coordinates>-108.29824066,37.34713364,0</coordinates>
                </Point>
            </Placemark>
        
            <Placemark>
                <name>Dumont, CO</name>
                <styleUrl>#traffic_camera</styleUrl>
                <ExtendedData>
                    <Data name="video">
                    <value>https://www.traffic-cams.com/dumont/colorado/all</value>
                    </Data>
                </ExtendedData>
                <Point>
                    <coordinates>-105.59972382,39.76472092,0</coordinates>
                </Point>
            </Placemark>
        
            <Placemark>
                <name>Walsenburg, CO</name>
                <styleUrl>#traffic_camera</styleUrl>
                <ExtendedData>
                    <Data name="video">
                    <value>https://www.traffic-cams.com/walsenburg/colorado/all</value>
                    </Data>
                </ExtendedData>
                <Point>
                    <coordinates>-104.8042984,37.63816071,0</coordinates>
                </Point>
            </Placemark>
        
            <Placemark>
                <name>Del Norte, CO</name>
                <styleUrl>#traffic_camera</styleUrl>
                <ExtendedData>
                    <Data name="video">
                    <value>https://www.traffic-cams.com/del-norte/colorado/all</value>
                    </Data>
                </ExtendedData>
                <Point>
                    <coordinates>-106.35050201,37.67134476,0</coordinates>
                </Point>
            </Placemark>
        
            <Placemark>
                <name>Cripple Creek, CO</name>
                <styleUrl>#traffic_camera</styleUrl>
                <ExtendedData>
                    <Data name="video">
                    <value>https://www.traffic-cams.com/cripple-creek/colorado/all</value>
                    </Data>
                </ExtendedData>
                <Point>
                    <coordinates>-105.17778015,38.74666595,0</coordinates>
                </Point>
            </Placemark>
        
            <Placemark>
                <name>Ophir, CO</name>
                <styleUrl>#traffic_camera</styleUrl>
                <ExtendedData>
                    <Data name="video">
                    <value>https://www.traffic-cams.com/ophir/colorado/all</value>
                    </Data>
                </ExtendedData>
                <Point>
                    <coordinates>-107.85195923,37.85619736,0</coordinates>
                </Point>
            </Placemark>
        
            <Placemark>
                <name>Twin Lakes, CO</name>
                <styleUrl>#traffic_camera</styleUrl>
                <ExtendedData>
                    <Data name="video">
                    <value>https://www.traffic-cams.com/twin-lakes/colorado/all</value>
                    </Data>
                </ExtendedData>
                <Point>
                    <coordinates>-106.43508148,39.09023285,0</coordinates>
                </Point>
            </Placemark>
        
            <Placemark>
                <name>Frederick, CO</name>
                <styleUrl>#traffic_camera</styleUrl>
                <ExtendedData>
                    <Data name="video">
                    <value>https://www.traffic-cams.com/frederick/colorado/all</value>
                    </Data>
                </ExtendedData>
                <Point>
                    <coordinates>-104.9366684,40.09916687,0</coordinates>
                </Point>
            </Placemark>
        
            <Placemark>
                <name>Dove Creek, CO</name>
                <styleUrl>#traffic_camera</styleUrl>
                <ExtendedData>
                    <Data name="video">
                    <value>https://www.traffic-cams.com/dove-creek/colorado/all</value>
                    </Data>
                </ExtendedData>
                <Point>
                    <coordinates>-108.91814423,37.76319885,0</coordinates>
                </Point>
            </Placemark>
        
            <Placemark>
                <name>Wolcott, CO</name>
                <styleUrl>#traffic_camera</styleUrl>
                <ExtendedData>
                    <Data name="video">
                    <value>https://www.traffic-cams.com/wolcott/colorado/all</value>
                    </Data>
                </ExtendedData>
                <Point>
                    <coordinates>-106.67805481,39.70277786,0</coordinates>
                </Point>
            </Placemark>
        
            <Placemark>
                <name>Englewood, CO</name>
                <styleUrl>#traffic_camera</styleUrl>
                <ExtendedData>
                    <Data name="video">
                    <value>https://www.traffic-cams.com/englewood/colorado/all</value>
                    </Data>
                </ExtendedData>
                <Point>
                    <coordinates>-104.99002075,39.64602661,0</coordinates>
                </Point>
            </Placemark>
        
            <Placemark>
                <name>Somerset, CO</name>
                <styleUrl>#traffic_camera</styleUrl>
                <ExtendedData>
                    <Data name="video">
                    <value>https://www.traffic-cams.com/somerset/colorado/all</value>
                    </Data>
                </ExtendedData>
                <Point>
                    <coordinates>-107.37814331,38.94680023,0</coordinates>
                </Point>
            </Placemark>
        
            <Placemark>
                <name>Blanca, CO</name>
                <styleUrl>#traffic_camera</styleUrl>
                <ExtendedData>
                    <Data name="video">
                    <value>https://www.traffic-cams.com/blanca/colorado/all</value>
                    </Data>
                </ExtendedData>
                <Point>
                    <coordinates>-105.51778412,37.43170166,0</coordinates>
                </Point>
            </Placemark>
        
            <Placemark>
                <name>Westminster, CO</name>
                <styleUrl>#traffic_camera</styleUrl>
                <ExtendedData>
                    <Data name="video">
                    <value>https://www.traffic-cams.com/westminster/colorado/all</value>
                    </Data>
                </ExtendedData>
                <Point>
                    <coordinates>-105.03708649,39.8542366,0</coordinates>
                </Point>
            </Placemark>
        
            <Placemark>
                <name>Granada, CO</name>
                <styleUrl>#traffic_camera</styleUrl>
                <ExtendedData>
                    <Data name="video">
                    <value>https://www.traffic-cams.com/granada/colorado/all</value>
                    </Data>
                </ExtendedData>
                <Point>
                    <coordinates>-102.32711792,38.05448532,0</coordinates>
                </Point>
            </Placemark>
        
            <Placemark>
                <name>Hamilton, CO</name>
                <styleUrl>#traffic_camera</styleUrl>
                <ExtendedData>
                    <Data name="video">
                    <value>https://www.traffic-cams.com/hamilton/colorado/all</value>
                    </Data>
                </ExtendedData>
                <Point>
                    <coordinates>-107.58409119,40.32503891,0</coordinates>
                </Point>
            </Placemark>
        
            <Placemark>
                <name>Collbran, CO</name>
                <styleUrl>#traffic_camera</styleUrl>
                <ExtendedData>
                    <Data name="video">
                    <value>https://www.traffic-cams.com/collbran/colorado/all</value>
                    </Data>
                </ExtendedData>
                <Point>
                    <coordinates>-107.92494202,39.24526596,0</coordinates>
                </Point>
            </Placemark>
        
            <Placemark>
                <name>Powderhorn, CO</name>
                <styleUrl>#traffic_camera</styleUrl>
                <ExtendedData>
                    <Data name="video">
                    <value>https://www.traffic-cams.com/powderhorn/colorado/all</value>
                    </Data>
                </ExtendedData>
                <Point>
                    <coordinates>-107.10845184,38.28216553,0</coordinates>
                </Point>
            </Placemark>
        
            <Placemark>
                <name>Loma, CO</name>
                <styleUrl>#traffic_camera</styleUrl>
                <ExtendedData>
                    <Data name="video">
                    <value>https://www.traffic-cams.com/loma/colorado/all</value>
                    </Data>
                </ExtendedData>
                <Point>
                    <coordinates>-108.81490326,39.22789764,0</coordinates>
                </Point>
            </Placemark>
        
            <Placemark>
                <name>Grand Lake, CO</name>
                <styleUrl>#traffic_camera</styleUrl>
                <ExtendedData>
                    <Data name="video">
                    <value>https://www.traffic-cams.com/grand-lake/colorado/all</value>
                    </Data>
                </ExtendedData>
                <Point>
                    <coordinates>-105.86048889,40.22886276,0</coordinates>
                </Point>
            </Placemark>
        
            <Placemark>
                <name>Wiley, CO</name>
                <styleUrl>#traffic_camera</styleUrl>
                <ExtendedData>
                    <Data name="video">
                    <value>https://www.traffic-cams.com/wiley/colorado/all</value>
                    </Data>
                </ExtendedData>
                <Point>
                    <coordinates>-102.71473694,38.15897751,0</coordinates>
                </Point>
            </Placemark>
        
            <Placemark>
                <name>Cortez, CO</name>
                <styleUrl>#traffic_camera</styleUrl>
                <ExtendedData>
                    <Data name="video">
                    <value>https://www.traffic-cams.com/cortez/colorado/all</value>
                    </Data>
                </ExtendedData>
                <Point>
                    <coordinates>-108.58372498,37.35494995,0</coordinates>
                </Point>
            </Placemark>
        
            <Placemark>
                <name>Ridgway, CO</name>
                <styleUrl>#traffic_camera</styleUrl>
                <ExtendedData>
                    <Data name="video">
                    <value>https://www.traffic-cams.com/ridgway/colorado/all</value>
                    </Data>
                </ExtendedData>
                <Point>
                    <coordinates>-107.75334167,38.13807297,0</coordinates>
                </Point>
            </Placemark>
        
            <Placemark>
                <name>Berthoud, CO</name>
                <styleUrl>#traffic_camera</styleUrl>
                <ExtendedData>
                    <Data name="video">
                    <value>https://www.traffic-cams.com/berthoud/colorado/all</value>
                    </Data>
                </ExtendedData>
                <Point>
                    <coordinates>-105.10546112,40.29933167,0</coordinates>
                </Point>
            </Placemark>
        
            <Placemark>
                <name>Boulder, CO</name>
                <styleUrl>#traffic_camera</styleUrl>
                <ExtendedData>
                    <Data name="video">
                    <value>https://www.traffic-cams.com/boulder/colorado/all</value>
                    </Data>
                </ExtendedData>
                <Point>
                    <coordinates>-105.21425629,40.04973221,0</coordinates>
                </Point>
            </Placemark>
        
            <Placemark>
                <name>Lake City, CO</name>
                <styleUrl>#traffic_camera</styleUrl>
                <ExtendedData>
                    <Data name="video">
                    <value>https://www.traffic-cams.com/lake-city/colorado/all</value>
                    </Data>
                </ExtendedData>
                <Point>
                    <coordinates>-107.3020401,37.98677063,0</coordinates>
                </Point>
            </Placemark>
        
            <Placemark>
                <name>Broomfield, CO</name>
                <styleUrl>#traffic_camera</styleUrl>
                <ExtendedData>
                    <Data name="video">
                    <value>https://www.traffic-cams.com/broomfield/colorado/all</value>
                    </Data>
                </ExtendedData>
                <Point>
                    <coordinates>-105.06090546,39.92451477,0</coordinates>
                </Point>
            </Placemark>
        
            <Placemark>
                <name>Nederland, CO</name>
                <styleUrl>#traffic_camera</styleUrl>
                <ExtendedData>
                    <Data name="video">
                    <value>https://www.traffic-cams.com/nederland/colorado/all</value>
                    </Data>
                </ExtendedData>
                <Point>
                    <coordinates>-105.48126221,39.97026062,0</coordinates>
                </Point>
            </Placemark>
        
            <Placemark>
                <name>Bayfield, CO</name>
                <styleUrl>#traffic_camera</styleUrl>
                <ExtendedData>
                    <Data name="video">
                    <value>https://www.traffic-cams.com/bayfield/colorado/all</value>
                    </Data>
                </ExtendedData>
                <Point>
                    <coordinates>-107.61373138,37.26032639,0</coordinates>
                </Point>
            </Placemark>
        
            <Placemark>
                <name>Durango, CO</name>
                <styleUrl>#traffic_camera</styleUrl>
                <ExtendedData>
                    <Data name="video">
                    <value>https://www.traffic-cams.com/durango/colorado/all</value>
                    </Data>
                </ExtendedData>
                <Point>
                    <coordinates>-107.86168671,37.28738785,0</coordinates>
                </Point>
            </Placemark>
        
            <Placemark>
                <name>Bailey, CO</name>
                <styleUrl>#traffic_camera</styleUrl>
                <ExtendedData>
                    <Data name="video">
                    <value>https://www.traffic-cams.com/bailey/colorado/all</value>
                    </Data>
                </ExtendedData>
                <Point>
                    <coordinates>-105.46928406,39.44823456,0</coordinates>
                </Point>
            </Placemark>
        
            <Placemark>
                <name>Gunnison, CO</name>
                <styleUrl>#traffic_camera</styleUrl>
                <ExtendedData>
                    <Data name="video">
                    <value>https://www.traffic-cams.com/gunnison/colorado/all</value>
                    </Data>
                </ExtendedData>
                <Point>
                    <coordinates>-106.93101501,38.55105591,0</coordinates>
                </Point>
            </Placemark>
        
            <Placemark>
                <name>Saguache, CO</name>
                <styleUrl>#traffic_camera</styleUrl>
                <ExtendedData>
                    <Data name="video">
                    <value>https://www.traffic-cams.com/saguache/colorado/all</value>
                    </Data>
                </ExtendedData>
                <Point>
                    <coordinates>-106.18759155,38.09775162,0</coordinates>
                </Point>
            </Placemark>
        
            <Placemark>
                <name>Red Cliff, CO</name>
                <styleUrl>#traffic_camera</styleUrl>
                <ExtendedData>
                    <Data name="video">
                    <value>https://www.traffic-cams.com/red-cliff/colorado/all</value>
                    </Data>
                </ExtendedData>
                <Point>
                    <coordinates>-106.36750031,39.51222229,0</coordinates>
                </Point>
            </Placemark>
        
            <Placemark>
                <name>Eldorado Springs, CO</name>
                <styleUrl>#traffic_camera</styleUrl>
                <ExtendedData>
                    <Data name="video">
                    <value>https://www.traffic-cams.com/eldorado-springs/colorado/all</value>
                    </Data>
                </ExtendedData>
                <Point>
                    <coordinates>-105.27639008,39.93249893,0</coordinates>
                </Point>
            </Placemark>
        
            <Placemark>
                <name>Avon, CO</name>
                <styleUrl>#traffic_camera</styleUrl>
                <ExtendedData>
                    <Data name="video">
                    <value>https://www.traffic-cams.com/avon/colorado/all</value>
                    </Data>
                </ExtendedData>
                <Point>
                    <coordinates>-106.52166748,39.63138962,0</coordinates>
                </Point>
            </Placemark>
        
            <Placemark>
                <name>Central City, CO</name>
                <styleUrl>#traffic_camera</styleUrl>
                <ExtendedData>
                    <Data name="video">
                    <value>https://www.traffic-cams.com/central-city/colorado/all</value>
                    </Data>
                </ExtendedData>
                <Point>
                    <coordinates>-105.51361084,39.80194473,0</coordinates>
                </Point>
            </Placemark>
        
            <Placemark>
                <name>Leadville, CO</name>
                <styleUrl>#traffic_camera</styleUrl>
                <ExtendedData>
                    <Data name="video">
                    <value>https://www.traffic-cams.com/leadville/colorado/all</value>
                    </Data>
                </ExtendedData>
                <Point>
                    <coordinates>-106.30154419,39.2497406,0</coordinates>
                </Point>
            </Placemark>
        
            <Placemark>
                <name>Matheson, CO</name>
                <styleUrl>#traffic_camera</styleUrl>
                <ExtendedData>
                    <Data name="video">
                    <value>https://www.traffic-cams.com/matheson/colorado/all</value>
                    </Data>
                </ExtendedData>
                <Point>
                    <coordinates>-103.91316223,39.13204575,0</coordinates>
                </Point>
            </Placemark>
        
            <Placemark>
                <name>Palisade, CO</name>
                <styleUrl>#traffic_camera</styleUrl>
                <ExtendedData>
                    <Data name="video">
                    <value>https://www.traffic-cams.com/palisade/colorado/all</value>
                    </Data>
                </ExtendedData>
                <Point>
                    <coordinates>-108.36797333,39.10317612,0</coordinates>
                </Point>
            </Placemark>
        
            <Placemark>
                <name>Meeker, CO</name>
                <styleUrl>#traffic_camera</styleUrl>
                <ExtendedData>
                    <Data name="video">
                    <value>https://www.traffic-cams.com/meeker/colorado/all</value>
                    </Data>
                </ExtendedData>
                <Point>
                    <coordinates>-107.8924942,40.03872681,0</coordinates>
                </Point>
            </Placemark>
        
            <Placemark>
                <name>Rifle, CO</name>
                <styleUrl>#traffic_camera</styleUrl>
                <ExtendedData>
                    <Data name="video">
                    <value>https://www.traffic-cams.com/rifle/colorado/all</value>
                    </Data>
                </ExtendedData>
                <Point>
                    <coordinates>-107.78980255,39.54907227,0</coordinates>
                </Point>
            </Placemark>
        
            <Placemark>
                <name>Denver, CO</name>
                <styleUrl>#traffic_camera</styleUrl>
                <ExtendedData>
                    <Data name="video">
                    <value>https://www.traffic-cams.com/denver/colorado/all</value>
                    </Data>
                </ExtendedData>
                <Point>
                    <coordinates>-104.98899841,39.7507019,0</coordinates>
                </Point>
            </Placemark>
        
            <Placemark>
                <name>Olathe, CO</name>
                <styleUrl>#traffic_camera</styleUrl>
                <ExtendedData>
                    <Data name="video">
                    <value>https://www.traffic-cams.com/olathe/colorado/all</value>
                    </Data>
                </ExtendedData>
                <Point>
                    <coordinates>-107.99211884,38.59757614,0</coordinates>
                </Point>
            </Placemark>
        
            <Placemark>
                <name>Bennett, CO</name>
                <styleUrl>#traffic_camera</styleUrl>
                <ExtendedData>
                    <Data name="video">
                    <value>https://www.traffic-cams.com/bennett/colorado/all</value>
                    </Data>
                </ExtendedData>
                <Point>
                    <coordinates>-104.42728424,39.72539902,0</coordinates>
                </Point>
            </Placemark>
        
            <Placemark>
                <name>Kittredge, CO</name>
                <styleUrl>#traffic_camera</styleUrl>
                <ExtendedData>
                    <Data name="video">
                    <value>https://www.traffic-cams.com/kittredge/colorado/all</value>
                    </Data>
                </ExtendedData>
                <Point>
                    <coordinates>-105.29916382,39.65472031,0</coordinates>
                </Point>
            </Placemark>
        
            <Placemark>
                <name>Fort Garland, CO</name>
                <styleUrl>#traffic_camera</styleUrl>
                <ExtendedData>
                    <Data name="video">
                    <value>https://www.traffic-cams.com/fort-garland/colorado/all</value>
                    </Data>
                </ExtendedData>
                <Point>
                    <coordinates>-105.40487671,37.42697906,0</coordinates>
                </Point>
            </Placemark>
        
            <Placemark>
                <name>Greeley, CO</name>
                <styleUrl>#traffic_camera</styleUrl>
                <ExtendedData>
                    <Data name="video">
                    <value>https://www.traffic-cams.com/greeley/colorado/all</value>
                    </Data>
                </ExtendedData>
                <Point>
                    <coordinates>-104.70475769,40.41396713,0</coordinates>
                </Point>
            </Placemark>
        
            <Placemark>
                <name>Red Feather Lakes, CO</name>
                <styleUrl>#traffic_camera</styleUrl>
                <ExtendedData>
                    <Data name="video">
                    <value>https://www.traffic-cams.com/red-feather-lakes/colorado/all</value>
                    </Data>
                </ExtendedData>
                <Point>
                    <coordinates>-105.62445831,40.79645157,0</coordinates>
                </Point>
            </Placemark>
        
            <Placemark>
                <name>Como, CO</name>
                <styleUrl>#traffic_camera</styleUrl>
                <ExtendedData>
                    <Data name="video">
                    <value>https://www.traffic-cams.com/como/colorado/all</value>
                    </Data>
                </ExtendedData>
                <Point>
                    <coordinates>-105.89221954,39.31611252,0</coordinates>
                </Point>
            </Placemark>
        
            <Placemark>
                <name>Merino, CO</name>
                <styleUrl>#traffic_camera</styleUrl>
                <ExtendedData>
                    <Data name="video">
                    <value>https://www.traffic-cams.com/merino/colorado/all</value>
                    </Data>
                </ExtendedData>
                <Point>
                    <coordinates>-103.3447113,40.51154709,0</coordinates>
                </Point>
            </Placemark>
        
            <Placemark>
                <name>Cotopaxi, CO</name>
                <styleUrl>#traffic_camera</styleUrl>
                <ExtendedData>
                    <Data name="video">
                    <value>https://www.traffic-cams.com/cotopaxi/colorado/all</value>
                    </Data>
                </ExtendedData>
                <Point>
                    <coordinates>-105.6875,38.3702774,0</coordinates>
                </Point>
            </Placemark>
        
            <Placemark>
                <name>Roggen, CO</name>
                <styleUrl>#traffic_camera</styleUrl>
                <ExtendedData>
                    <Data name="video">
                    <value>https://www.traffic-cams.com/roggen/colorado/all</value>
                    </Data>
                </ExtendedData>
                <Point>
                    <coordinates>-104.31575012,40.20744324,0</coordinates>
                </Point>
            </Placemark>
        
            <Placemark>
                <name>Cimarron, CO</name>
                <styleUrl>#traffic_camera</styleUrl>
                <ExtendedData>
                    <Data name="video">
                    <value>https://www.traffic-cams.com/cimarron/colorado/all</value>
                    </Data>
                </ExtendedData>
                <Point>
                    <coordinates>-107.48236847,38.38763428,0</coordinates>
                </Point>
            </Placemark>
        
            <Placemark>
                <name>Stratton, CO</name>
                <styleUrl>#traffic_camera</styleUrl>
                <ExtendedData>
                    <Data name="video">
                    <value>https://www.traffic-cams.com/stratton/colorado/all</value>
                    </Data>
                </ExtendedData>
                <Point>
                    <coordinates>-102.59793091,39.30873489,0</coordinates>
                </Point>
            </Placemark>
        
            <Placemark>
                <name>Granite, CO</name>
                <styleUrl>#traffic_camera</styleUrl>
                <ExtendedData>
                    <Data name="video">
                    <value>https://www.traffic-cams.com/granite/colorado/all</value>
                    </Data>
                </ExtendedData>
                <Point>
                    <coordinates>-106.31141663,39.09529495,0</coordinates>
                </Point>
            </Placemark>
        
            <Placemark>
                <name>Monte Vista, CO</name>
                <styleUrl>#traffic_camera</styleUrl>
                <ExtendedData>
                    <Data name="video">
                    <value>https://www.traffic-cams.com/monte-vista/colorado/all</value>
                    </Data>
                </ExtendedData>
                <Point>
                    <coordinates>-106.14083099,37.57309341,0</coordinates>
                </Point>
            </Placemark>
        
            <Placemark>
                <name>Ouray, CO</name>
                <styleUrl>#traffic_camera</styleUrl>
                <ExtendedData>
                    <Data name="video">
                    <value>https://www.traffic-cams.com/ouray/colorado/all</value>
                    </Data>
                </ExtendedData>
                <Point>
                    <coordinates>-107.67260742,38.02576065,0</coordinates>
                </Point>
            </Placemark>
        
            <Placemark>
                <name>Loveland, CO</name>
                <styleUrl>#traffic_camera</styleUrl>
                <ExtendedData>
                    <Data name="video">
                    <value>https://www.traffic-cams.com/loveland/colorado/all</value>
                    </Data>
                </ExtendedData>
                <Point>
                    <coordinates>-105.09163666,40.38491821,0</coordinates>
                </Point>
            </Placemark>
        
            <Placemark>
                <name>Empire, CO</name>
                <styleUrl>#traffic_camera</styleUrl>
                <ExtendedData>
                    <Data name="video">
                    <value>https://www.traffic-cams.com/empire/colorado/all</value>
                    </Data>
                </ExtendedData>
                <Point>
                    <coordinates>-105.6838913,39.76139069,0</coordinates>
                </Point>
            </Placemark>
        
            <Placemark>
                <name>Eastlake, CO</name>
                <styleUrl>#traffic_camera</styleUrl>
                <ExtendedData>
                    <Data name="video">
                    <value>https://www.traffic-cams.com/eastlake/colorado/all</value>
                    </Data>
                </ExtendedData>
                <Point>
                    <coordinates>-104.94889069,39.92972183,0</coordinates>
                </Point>
            </Placemark>
        
            <Placemark>
                <name>Genoa, CO</name>
                <styleUrl>#traffic_camera</styleUrl>
                <ExtendedData>
                    <Data name="video">
                    <value>https://www.traffic-cams.com/genoa/colorado/all</value>
                    </Data>
                </ExtendedData>
                <Point>
                    <coordinates>-103.46068573,39.33832932,0</coordinates>
                </Point>
            </Placemark>
        
            <Placemark>
                <name>Gardner, CO</name>
                <styleUrl>#traffic_camera</styleUrl>
                <ExtendedData>
                    <Data name="video">
                    <value>https://www.traffic-cams.com/gardner/colorado/all</value>
                    </Data>
                </ExtendedData>
                <Point>
                    <coordinates>-105.23739624,37.76375198,0</coordinates>
                </Point>
            </Placemark>
        
            <Placemark>
                <name>Louisville, CO</name>
                <styleUrl>#traffic_camera</styleUrl>
                <ExtendedData>
                    <Data name="video">
                    <value>https://www.traffic-cams.com/louisville/colorado/all</value>
                    </Data>
                </ExtendedData>
                <Point>
                    <coordinates>-105.14555359,39.97894287,0</coordinates>
                </Point>
            </Placemark>
        
            <Placemark>
                <name>La Veta, CO</name>
                <styleUrl>#traffic_camera</styleUrl>
                <ExtendedData>
                    <Data name="video">
                    <value>https://www.traffic-cams.com/la-veta/colorado/all</value>
                    </Data>
                </ExtendedData>
                <Point>
                    <coordinates>-105.01299286,37.49829102,0</coordinates>
                </Point>
            </Placemark>
        
            <Placemark>
                <name>Cheyenne Wells, CO</name>
                <styleUrl>#traffic_camera</styleUrl>
                <ExtendedData>
                    <Data name="video">
                    <value>https://www.traffic-cams.com/cheyenne-wells/colorado/all</value>
                    </Data>
                </ExtendedData>
                <Point>
                    <coordinates>-102.35816956,38.81976318,0</coordinates>
                </Point>
            </Placemark>
        
            <Placemark>
                <name>Anton, CO</name>
                <styleUrl>#traffic_camera</styleUrl>
                <ExtendedData>
                    <Data name="video">
                    <value>https://www.traffic-cams.com/anton/colorado/all</value>
                    </Data>
                </ExtendedData>
                <Point>
                    <coordinates>-103.43429565,39.68652725,0</coordinates>
                </Point>
            </Placemark>
        
            <Placemark>
                <name>Glen Haven, CO</name>
                <styleUrl>#traffic_camera</styleUrl>
                <ExtendedData>
                    <Data name="video">
                    <value>https://www.traffic-cams.com/glen-haven/colorado/all</value>
                    </Data>
                </ExtendedData>
                <Point>
                    <coordinates>-105.4486084,40.45388794,0</coordinates>
                </Point>
            </Placemark>
        
            <Placemark>
                <name>Basalt, CO</name>
                <styleUrl>#traffic_camera</styleUrl>
                <ExtendedData>
                    <Data name="video">
                    <value>https://www.traffic-cams.com/basalt/colorado/all</value>
                    </Data>
                </ExtendedData>
                <Point>
                    <coordinates>-106.99874878,39.35346603,0</coordinates>
                </Point>
            </Placemark>
        
            <Placemark>
                <name>Castle Rock, CO</name>
                <styleUrl>#traffic_camera</styleUrl>
                <ExtendedData>
                    <Data name="video">
                    <value>https://www.traffic-cams.com/castle-rock/colorado/all</value>
                    </Data>
                </ExtendedData>
                <Point>
                    <coordinates>-104.86018372,39.39255905,0</coordinates>
                </Point>
            </Placemark>
        
            <Placemark>
                <name>Garcia, CO</name>
                <styleUrl>#traffic_camera</styleUrl>
                <ExtendedData>
                    <Data name="video">
                    <value>https://www.traffic-cams.com/garcia/colorado/all</value>
                    </Data>
                </ExtendedData>
                <Point>
                    <coordinates>-105.53666687,37.00416565,0</coordinates>
                </Point>
            </Placemark>
        
            <Placemark>
                <name>Dacono, CO</name>
                <styleUrl>#traffic_camera</styleUrl>
                <ExtendedData>
                    <Data name="video">
                    <value>https://www.traffic-cams.com/dacono/colorado/all</value>
                    </Data>
                </ExtendedData>
                <Point>
                    <coordinates>-104.92970276,40.08361053,0</coordinates>
                </Point>
            </Placemark>
        
            <Placemark>
                <name>Paradox, CO</name>
                <styleUrl>#traffic_camera</styleUrl>
                <ExtendedData>
                    <Data name="video">
                    <value>https://www.traffic-cams.com/paradox/colorado/all</value>
                    </Data>
                </ExtendedData>
                <Point>
                    <coordinates>-108.96166992,38.36833191,0</coordinates>
                </Point>
            </Placemark>
        
            <Placemark>
                <name>Holyoke, CO</name>
                <styleUrl>#traffic_camera</styleUrl>
                <ExtendedData>
                    <Data name="video">
                    <value>https://www.traffic-cams.com/holyoke/colorado/all</value>
                    </Data>
                </ExtendedData>
                <Point>
                    <coordinates>-102.282547,40.58254242,0</coordinates>
                </Point>
            </Placemark>
        
            <Placemark>
                <name>Julesburg, CO</name>
                <styleUrl>#traffic_camera</styleUrl>
                <ExtendedData>
                    <Data name="video">
                    <value>https://www.traffic-cams.com/julesburg/colorado/all</value>
                    </Data>
                </ExtendedData>
                <Point>
                    <coordinates>-102.25749969,40.97082901,0</coordinates>
                </Point>
            </Placemark>
        
            <Placemark>
                <name>Winter Park, CO</name>
                <styleUrl>#traffic_camera</styleUrl>
                <ExtendedData>
                    <Data name="video">
                    <value>https://www.traffic-cams.com/winter-park/colorado/all</value>
                    </Data>
                </ExtendedData>
                <Point>
                    <coordinates>-105.76249695,39.89166641,0</coordinates>
                </Point>
            </Placemark>
        
            <Placemark>
                <name>Wild Horse, CO</name>
                <styleUrl>#traffic_camera</styleUrl>
                <ExtendedData>
                    <Data name="video">
                    <value>https://www.traffic-cams.com/wild-horse/colorado/all</value>
                    </Data>
                </ExtendedData>
                <Point>
                    <coordinates>-103.0111084,38.82583237,0</coordinates>
                </Point>
            </Placemark>
        
            <Placemark>
                <name>Jamestown, CO</name>
                <styleUrl>#traffic_camera</styleUrl>
                <ExtendedData>
                    <Data name="video">
                    <value>https://www.traffic-cams.com/jamestown/colorado/all</value>
                    </Data>
                </ExtendedData>
                <Point>
                    <coordinates>-105.4189682,40.10055923,0</coordinates>
                </Point>
            </Placemark>
        
            <Placemark>
                <name>Norwood, CO</name>
                <styleUrl>#traffic_camera</styleUrl>
                <ExtendedData>
                    <Data name="video">
                    <value>https://www.traffic-cams.com/norwood/colorado/all</value>
                    </Data>
                </ExtendedData>
                <Point>
                    <coordinates>-108.2844696,38.11040497,0</coordinates>
                </Point>
            </Placemark>
        
            <Placemark>
                <name>Westcliffe, CO</name>
                <styleUrl>#traffic_camera</styleUrl>
                <ExtendedData>
                    <Data name="video">
                    <value>https://www.traffic-cams.com/westcliffe/colorado/all</value>
                    </Data>
                </ExtendedData>
                <Point>
                    <coordinates>-105.43315125,38.12302399,0</coordinates>
                </Point>
            </Placemark>
        
            <Placemark>
                <name>Trinidad, CO</name>
                <styleUrl>#traffic_camera</styleUrl>
                <ExtendedData>
                    <Data name="video">
                    <value>https://www.traffic-cams.com/trinidad/colorado/all</value>
                    </Data>
                </ExtendedData>
                <Point>
                    <coordinates>-104.50071716,37.17547607,0</coordinates>
                </Point>
            </Placemark>
        
            <Placemark>
                <name>Steamboat Springs, CO</name>
                <styleUrl>#traffic_camera</styleUrl>
                <ExtendedData>
                    <Data name="video">
                    <value>https://www.traffic-cams.com/steamboat-springs/colorado/all</value>
                    </Data>
                </ExtendedData>
                <Point>
                    <coordinates>-106.83152771,40.485569,0</coordinates>
                </Point>
            </Placemark>
        
            <Placemark>
                <name>Sargents, CO</name>
                <styleUrl>#traffic_camera</styleUrl>
                <ExtendedData>
                    <Data name="video">
                    <value>https://www.traffic-cams.com/sargents/colorado/all</value>
                    </Data>
                </ExtendedData>
                <Point>
                    <coordinates>-106.41444397,38.40416718,0</coordinates>
                </Point>
            </Placemark>
        
            <Placemark>
                <name>Gypsum, CO</name>
                <styleUrl>#traffic_camera</styleUrl>
                <ExtendedData>
                    <Data name="video">
                    <value>https://www.traffic-cams.com/gypsum/colorado/all</value>
                    </Data>
                </ExtendedData>
                <Point>
                    <coordinates>-106.96708679,39.66184616,0</coordinates>
                </Point>
            </Placemark>
        
            <Placemark>
                <name>Tabernash, CO</name>
                <styleUrl>#traffic_camera</styleUrl>
                <ExtendedData>
                    <Data name="video">
                    <value>https://www.traffic-cams.com/tabernash/colorado/all</value>
                    </Data>
                </ExtendedData>
                <Point>
                    <coordinates>-105.84249878,39.99361038,0</coordinates>
                </Point>
            </Placemark>
        
            <Placemark>
                <name>Idledale, CO</name>
                <styleUrl>#traffic_camera</styleUrl>
                <ExtendedData>
                    <Data name="video">
                    <value>https://www.traffic-cams.com/idledale/colorado/all</value>
                    </Data>
                </ExtendedData>
                <Point>
                    <coordinates>-105.2436142,39.66611099,0</coordinates>
                </Point>
            </Placemark>
        
            <Placemark>
                <name>South Fork, CO</name>
                <styleUrl>#traffic_camera</styleUrl>
                <ExtendedData>
                    <Data name="video">
                    <value>https://www.traffic-cams.com/south-fork/colorado/all</value>
                    </Data>
                </ExtendedData>
                <Point>
                    <coordinates>-106.61244965,37.67248154,0</coordinates>
                </Point>
            </Placemark>
        
            <Placemark>
                <name>Silver Plume, CO</name>
                <styleUrl>#traffic_camera</styleUrl>
                <ExtendedData>
                    <Data name="video">
                    <value>https://www.traffic-cams.com/silver-plume/colorado/all</value>
                    </Data>
                </ExtendedData>
                <Point>
                    <coordinates>-105.72528076,39.69610977,0</coordinates>
                </Point>
            </Placemark>
        
            <Placemark>
                <name>Idalia, CO</name>
                <styleUrl>#traffic_camera</styleUrl>
                <ExtendedData>
                    <Data name="video">
                    <value>https://www.traffic-cams.com/idalia/colorado/all</value>
                    </Data>
                </ExtendedData>
                <Point>
                    <coordinates>-102.21156311,39.73314667,0</coordinates>
                </Point>
            </Placemark>
        
            <Placemark>
                <name>Lake George, CO</name>
                <styleUrl>#traffic_camera</styleUrl>
                <ExtendedData>
                    <Data name="video">
                    <value>https://www.traffic-cams.com/lake-george/colorado/all</value>
                    </Data>
                </ExtendedData>
                <Point>
                    <coordinates>-105.43465424,39.03423309,0</coordinates>
                </Point>
            </Placemark>
        
            <Placemark>
                <name>Nunn, CO</name>
                <styleUrl>#traffic_camera</styleUrl>
                <ExtendedData>
                    <Data name="video">
                    <value>https://www.traffic-cams.com/nunn/colorado/all</value>
                    </Data>
                </ExtendedData>
                <Point>
                    <coordinates>-104.78501129,40.72648239,0</coordinates>
                </Point>
            </Placemark>
        
            <Placemark>
                <name>Crestone, CO</name>
                <styleUrl>#traffic_camera</styleUrl>
                <ExtendedData>
                    <Data name="video">
                    <value>https://www.traffic-cams.com/crestone/colorado/all</value>
                    </Data>
                </ExtendedData>
                <Point>
                    <coordinates>-105.69916534,37.99638748,0</coordinates>
                </Point>
            </Placemark>
        
            <Placemark>
                <name>Conifer, CO</name>
                <styleUrl>#traffic_camera</styleUrl>
                <ExtendedData>
                    <Data name="video">
                    <value>https://www.traffic-cams.com/conifer/colorado/all</value>
                    </Data>
                </ExtendedData>
                <Point>
                    <coordinates>-105.31687164,39.51973343,0</coordinates>
                </Point>
            </Placemark>
        
            <Placemark>
                <name>Monument, CO</name>
                <styleUrl>#traffic_camera</styleUrl>
                <ExtendedData>
                    <Data name="video">
                    <value>https://www.traffic-cams.com/monument/colorado/all</value>
                    </Data>
                </ExtendedData>
                <Point>
                    <coordinates>-104.85415649,39.10072708,0</coordinates>
                </Point>
            </Placemark>
        
            <Placemark>
                <name>Canon City, CO</name>
                <styleUrl>#traffic_camera</styleUrl>
                <ExtendedData>
                    <Data name="video">
                    <value>https://www.traffic-cams.com/canon-city/colorado/all</value>
                    </Data>
                </ExtendedData>
                <Point>
                    <coordinates>-105.21782684,38.44507217,0</coordinates>
                </Point>
            </Placemark>
        
            <Placemark>
                <name>Limon, CO</name>
                <styleUrl>#traffic_camera</styleUrl>
                <ExtendedData>
                    <Data name="video">
                    <value>https://www.traffic-cams.com/limon/colorado/all</value>
                    </Data>
                </ExtendedData>
                <Point>
                    <coordinates>-103.69166565,39.26388931,0</coordinates>
                </Point>
            </Placemark>
        
            <Placemark>
                <name>Hooper, CO</name>
                <styleUrl>#traffic_camera</styleUrl>
                <ExtendedData>
                    <Data name="video">
                    <value>https://www.traffic-cams.com/hooper/colorado/all</value>
                    </Data>
                </ExtendedData>
                <Point>
                    <coordinates>-105.87119293,37.72320175,0</coordinates>
                </Point>
            </Placemark>
        
            <Placemark>
                <name>Breckenridge, CO</name>
                <styleUrl>#traffic_camera</styleUrl>
                <ExtendedData>
                    <Data name="video">
                    <value>https://www.traffic-cams.com/breckenridge/colorado/all</value>
                    </Data>
                </ExtendedData>
                <Point>
                    <coordinates>-106.03778076,39.48166656,0</coordinates>
                </Point>
            </Placemark>
        
            <Placemark>
                <name>Grant, CO</name>
                <styleUrl>#traffic_camera</styleUrl>
                <ExtendedData>
                    <Data name="video">
                    <value>https://www.traffic-cams.com/grant/colorado/all</value>
                    </Data>
                </ExtendedData>
                <Point>
                    <coordinates>-105.66110992,39.45972061,0</coordinates>
                </Point>
            </Placemark>
        
            <Placemark>
                <name>Morrison, CO</name>
                <styleUrl>#traffic_camera</styleUrl>
                <ExtendedData>
                    <Data name="video">
                    <value>https://www.traffic-cams.com/morrison/colorado/all</value>
                    </Data>
                </ExtendedData>
                <Point>
                    <coordinates>-105.17464447,39.61245346,0</coordinates>
                </Point>
            </Placemark>
        
            <Placemark>
                <name>Woody Creek, CO</name>
                <styleUrl>#traffic_camera</styleUrl>
                <ExtendedData>
                    <Data name="video">
                    <value>https://www.traffic-cams.com/woody-creek/colorado/all</value>
                    </Data>
                </ExtendedData>
                <Point>
                    <coordinates>-106.89083099,39.27694321,0</coordinates>
                </Point>
            </Placemark>
        
            <Placemark>
                <name>Green Mountain Falls, CO</name>
                <styleUrl>#traffic_camera</styleUrl>
                <ExtendedData>
                    <Data name="video">
                    <value>https://www.traffic-cams.com/green-mountain-fall</value>
                    </Data>
                </ExtendedData>
                <Point>
                    <coordinates>-105.01750183,38.93444443,0</coordinates>
                </Point>
            </Placemark>
        
            <Placemark>
                <name>Fort Morgan, CO</name>
                <styleUrl>#traffic_camera</styleUrl>
                <ExtendedData>
                    <Data name="video">
                    <value>https://www.traffic-cams.com/fort-morgan/colorado/all</value>
                    </Data>
                </ExtendedData>
                <Point>
                    <coordinates>-103.80311584,40.25408554,0</coordinates>
                </Point>
            </Placemark>
        
            <Placemark>
                <name>Kim, CO</name>
                <styleUrl>#traffic_camera</styleUrl>
                <ExtendedData>
                    <Data name="video">
                    <value>https://www.traffic-cams.com/kim/colorado/all</value>
                    </Data>
                </ExtendedData>
                <Point>
                    <coordinates>-103.35834503,37.3311882,0</coordinates>
                </Point>
            </Placemark>
        
            <Placemark>
                <name>Conejos, CO</name>
                <styleUrl>#traffic_camera</styleUrl>
                <ExtendedData>
                    <Data name="video">
                    <value>https://www.traffic-cams.com/conejos/colorado/all</value>
                    </Data>
                </ExtendedData>
                <Point>
                    <coordinates>-106.01916504,37.08833313,0</coordinates>
                </Point>
            </Placemark>