<?xml version="1.0" encoding="UTF-8"?>
<kml xmlns="http://www.opengis.net/kml/2.2">
<Document>
<name>KmlFile</name>

<Style id="traffic_camera">
<IconStyle>
    <Icon>
    <href>https://maps.google.com/mapfiles/kml/pushpin/ylw-pushpin.png</href>
    </Icon>
</IconStyle>
<BalloonStyle>
    <text>$[video]</text>
</BalloonStyle>
</Style>

            <Placemark>
                <name>Little Chute, WI</name>
                <styleUrl>#traffic_camera</styleUrl>
                <ExtendedData>
                    <Data name="video">
                    <value>https://www.traffic-cams.com/little-chute/wisconsin/all</value>
                    </Data>
                </ExtendedData>
                <Point>
                    <coordinates>-88.31198883,44.28424835,0</coordinates>
                </Point>
            </Placemark>
        
            <Placemark>
                <name>Athelstane, WI</name>
                <styleUrl>#traffic_camera</styleUrl>
                <ExtendedData>
                    <Data name="video">
                    <value>https://www.traffic-cams.com/athelstane/wisconsin/all</value>
                    </Data>
                </ExtendedData>
                <Point>
                    <coordinates>-88.17528534,45.42281723,0</coordinates>
                </Point>
            </Placemark>
        
            <Placemark>
                <name>Delavan, WI</name>
                <styleUrl>#traffic_camera</styleUrl>
                <ExtendedData>
                    <Data name="video">
                    <value>https://www.traffic-cams.com/delavan/wisconsin/all</value>
                    </Data>
                </ExtendedData>
                <Point>
                    <coordinates>-88.62771606,42.622715,0</coordinates>
                </Point>
            </Placemark>
        
            <Placemark>
                <name>Plover, WI</name>
                <styleUrl>#traffic_camera</styleUrl>
                <ExtendedData>
                    <Data name="video">
                    <value>https://www.traffic-cams.com/plover/wisconsin/all</value>
                    </Data>
                </ExtendedData>
                <Point>
                    <coordinates>-89.54280853,44.45067215,0</coordinates>
                </Point>
            </Placemark>
        
            <Placemark>
                <name>Wrightstown, WI</name>
                <styleUrl>#traffic_camera</styleUrl>
                <ExtendedData>
                    <Data name="video">
                    <value>https://www.traffic-cams.com/wrightstown/wisconsin/all</value>
                    </Data>
                </ExtendedData>
                <Point>
                    <coordinates>-88.12177277,44.33837891,0</coordinates>
                </Point>
            </Placemark>
        
            <Placemark>
                <name>Lomira, WI</name>
                <styleUrl>#traffic_camera</styleUrl>
                <ExtendedData>
                    <Data name="video">
                    <value>https://www.traffic-cams.com/lomira/wisconsin/all</value>
                    </Data>
                </ExtendedData>
                <Point>
                    <coordinates>-88.44130707,43.58848953,0</coordinates>
                </Point>
            </Placemark>
        
            <Placemark>
                <name>Sherwood, WI</name>
                <styleUrl>#traffic_camera</styleUrl>
                <ExtendedData>
                    <Data name="video">
                    <value>https://www.traffic-cams.com/sherwood/wisconsin/all</value>
                    </Data>
                </ExtendedData>
                <Point>
                    <coordinates>-88.25971985,44.17361069,0</coordinates>
                </Point>
            </Placemark>
        
            <Placemark>
                <name>Mequon, WI</name>
                <styleUrl>#traffic_camera</styleUrl>
                <ExtendedData>
                    <Data name="video">
                    <value>https://www.traffic-cams.com/mequon/wisconsin/all</value>
                    </Data>
                </ExtendedData>
                <Point>
                    <coordinates>-87.98444366,43.23638916,0</coordinates>
                </Point>
            </Placemark>
        
            <Placemark>
                <name>Hammond, WI</name>
                <styleUrl>#traffic_camera</styleUrl>
                <ExtendedData>
                    <Data name="video">
                    <value>https://www.traffic-cams.com/hammond/wisconsin/all</value>
                    </Data>
                </ExtendedData>
                <Point>
                    <coordinates>-92.44721222,44.96700287,0</coordinates>
                </Point>
            </Placemark>
        
            <Placemark>
                <name>Mc Farland, WI</name>
                <styleUrl>#traffic_camera</styleUrl>
                <ExtendedData>
                    <Data name="video">
                    <value>https://www.traffic-cams.com/mc-farland/wisconsin/all</value>
                    </Data>
                </ExtendedData>
                <Point>
                    <coordinates>-89.29476929,43.01065063,0</coordinates>
                </Point>
            </Placemark>
        
            <Placemark>
                <name>Port Washington, WI</name>
                <styleUrl>#traffic_camera</styleUrl>
                <ExtendedData>
                    <Data name="video">
                    <value>https://www.traffic-cams.com/port-washington/wisconsin/all</value>
                    </Data>
                </ExtendedData>
                <Point>
                    <coordinates>-87.87966156,43.39546204,0</coordinates>
                </Point>
            </Placemark>
        
            <Placemark>
                <name>Rothschild, WI</name>
                <styleUrl>#traffic_camera</styleUrl>
                <ExtendedData>
                    <Data name="video">
                    <value>https://www.traffic-cams.com/rothschild/wisconsin/all</value>
                    </Data>
                </ExtendedData>
                <Point>
                    <coordinates>-89.6192627,44.88428879,0</coordinates>
                </Point>
            </Placemark>
        
            <Placemark>
                <name>Roberts, WI</name>
                <styleUrl>#traffic_camera</styleUrl>
                <ExtendedData>
                    <Data name="video">
                    <value>https://www.traffic-cams.com/roberts/wisconsin/all</value>
                    </Data>
                </ExtendedData>
                <Point>
                    <coordinates>-92.55977631,44.98735428,0</coordinates>
                </Point>
            </Placemark>
        
            <Placemark>
                <name>Hudson, WI</name>
                <styleUrl>#traffic_camera</styleUrl>
                <ExtendedData>
                    <Data name="video">
                    <value>https://www.traffic-cams.com/hudson/wisconsin/all</value>
                    </Data>
                </ExtendedData>
                <Point>
                    <coordinates>-92.72705841,44.98418808,0</coordinates>
                </Point>
            </Placemark>
        
            <Placemark>
                <name>Slinger, WI</name>
                <styleUrl>#traffic_camera</styleUrl>
                <ExtendedData>
                    <Data name="video">
                    <value>https://www.traffic-cams.com/slinger/wisconsin/all</value>
                    </Data>
                </ExtendedData>
                <Point>
                    <coordinates>-88.28237915,43.33221054,0</coordinates>
                </Point>
            </Placemark>
        
            <Placemark>
                <name>Strum, WI</name>
                <styleUrl>#traffic_camera</styleUrl>
                <ExtendedData>
                    <Data name="video">
                    <value>https://www.traffic-cams.com/strum/wisconsin/all</value>
                    </Data>
                </ExtendedData>
                <Point>
                    <coordinates>-91.38327026,44.56735611,0</coordinates>
                </Point>
            </Placemark>
        
            <Placemark>
                <name>Woodville, WI</name>
                <styleUrl>#traffic_camera</styleUrl>
                <ExtendedData>
                    <Data name="video">
                    <value>https://www.traffic-cams.com/woodville/wisconsin/all</value>
                    </Data>
                </ExtendedData>
                <Point>
                    <coordinates>-92.2848053,44.94080734,0</coordinates>
                </Point>
            </Placemark>
        
            <Placemark>
                <name>Neenah, WI</name>
                <styleUrl>#traffic_camera</styleUrl>
                <ExtendedData>
                    <Data name="video">
                    <value>https://www.traffic-cams.com/neenah/wisconsin/all</value>
                    </Data>
                </ExtendedData>
                <Point>
                    <coordinates>-88.47920227,44.18109512,0</coordinates>
                </Point>
            </Placemark>
        
            <Placemark>
                <name>Sheboygan, WI</name>
                <styleUrl>#traffic_camera</styleUrl>
                <ExtendedData>
                    <Data name="video">
                    <value>https://www.traffic-cams.com/sheboygan/wisconsin/all</value>
                    </Data>
                </ExtendedData>
                <Point>
                    <coordinates>-87.72467041,43.74098206,0</coordinates>
                </Point>
            </Placemark>
        
            <Placemark>
                <name>Spring Valley, WI</name>
                <styleUrl>#traffic_camera</styleUrl>
                <ExtendedData>
                    <Data name="video">
                    <value>https://www.traffic-cams.com/spring-vall</value>
                    </Data>
                </ExtendedData>
                <Point>
                    <coordinates>-92.29059601,44.83556747,0</coordinates>
                </Point>
            </Placemark>
        
            <Placemark>
                <name>Somers, WI</name>
                <styleUrl>#traffic_camera</styleUrl>
                <ExtendedData>
                    <Data name="video">
                    <value>https://www.traffic-cams.com/somers/wisconsin/all</value>
                    </Data>
                </ExtendedData>
                <Point>
                    <coordinates>-87.91027832,42.64027786,0</coordinates>
                </Point>
            </Placemark>
        
            <Placemark>
                <name>Ashland, WI</name>
                <styleUrl>#traffic_camera</styleUrl>
                <ExtendedData>
                    <Data name="video">
                    <value>https://www.traffic-cams.com/ashland/wisconsin/all</value>
                    </Data>
                </ExtendedData>
                <Point>
                    <coordinates>-90.87670898,46.57794952,0</coordinates>
                </Point>
            </Placemark>
        
            <Placemark>
                <name>Baldwin, WI</name>
                <styleUrl>#traffic_camera</styleUrl>
                <ExtendedData>
                    <Data name="video">
                    <value>https://www.traffic-cams.com/baldwin/wisconsin/all</value>
                    </Data>
                </ExtendedData>
                <Point>
                    <coordinates>-92.3655014,44.96569824,0</coordinates>
                </Point>
            </Placemark>
        
            <Placemark>
                <name>Afton, WI</name>
                <styleUrl>#traffic_camera</styleUrl>
                <ExtendedData>
                    <Data name="video">
                    <value>https://www.traffic-cams.com/afton/wisconsin/all</value>
                    </Data>
                </ExtendedData>
                <Point>
                    <coordinates>-89.07111359,42.60388947,0</coordinates>
                </Point>
            </Placemark>
        
            <Placemark>
                <name>Pewaukee, WI</name>
                <styleUrl>#traffic_camera</styleUrl>
                <ExtendedData>
                    <Data name="video">
                    <value>https://www.traffic-cams.com/pewaukee/wisconsin/all</value>
                    </Data>
                </ExtendedData>
                <Point>
                    <coordinates>-88.2729187,43.07877731,0</coordinates>
                </Point>
            </Placemark>
        
            <Placemark>
                <name>Hixton, WI</name>
                <styleUrl>#traffic_camera</styleUrl>
                <ExtendedData>
                    <Data name="video">
                    <value>https://www.traffic-cams.com/hixton/wisconsin/all</value>
                    </Data>
                </ExtendedData>
                <Point>
                    <coordinates>-91.03908539,44.39777756,0</coordinates>
                </Point>
            </Placemark>
        
            <Placemark>
                <name>Thiensville, WI</name>
                <styleUrl>#traffic_camera</styleUrl>
                <ExtendedData>
                    <Data name="video">
                    <value>https://www.traffic-cams.com/thiensville/wisconsin/all</value>
                    </Data>
                </ExtendedData>
                <Point>
                    <coordinates>-87.95935822,43.22514343,0</coordinates>
                </Point>
            </Placemark>
        
            <Placemark>
                <name>Eagle River, WI</name>
                <styleUrl>#traffic_camera</styleUrl>
                <ExtendedData>
                    <Data name="video">
                    <value>https://www.traffic-cams.com/eagle-river/wisconsin/all</value>
                    </Data>
                </ExtendedData>
                <Point>
                    <coordinates>-89.25305939,45.91608429,0</coordinates>
                </Point>
            </Placemark>
        
            <Placemark>
                <name>Deerfield, WI</name>
                <styleUrl>#traffic_camera</styleUrl>
                <ExtendedData>
                    <Data name="video">
                    <value>https://www.traffic-cams.com/deerfield/wisconsin/all</value>
                    </Data>
                </ExtendedData>
                <Point>
                    <coordinates>-89.0861969,43.05710602,0</coordinates>
                </Point>
            </Placemark>
        
            <Placemark>
                <name>Muskego, WI</name>
                <styleUrl>#traffic_camera</styleUrl>
                <ExtendedData>
                    <Data name="video">
                    <value>https://www.traffic-cams.com/muskego/wisconsin/all</value>
                    </Data>
                </ExtendedData>
                <Point>
                    <coordinates>-88.12141418,42.90465164,0</coordinates>
                </Point>
            </Placemark>
        
            <Placemark>
                <name>Portage, WI</name>
                <styleUrl>#traffic_camera</styleUrl>
                <ExtendedData>
                    <Data name="video">
                    <value>https://www.traffic-cams.com/portage/wisconsin/all</value>
                    </Data>
                </ExtendedData>
                <Point>
                    <coordinates>-89.47138977,43.5501442,0</coordinates>
                </Point>
            </Placemark>
        
            <Placemark>
                <name>Madison, WI</name>
                <styleUrl>#traffic_camera</styleUrl>
                <ExtendedData>
                    <Data name="video">
                    <value>https://www.traffic-cams.com/madison/wisconsin/all</value>
                    </Data>
                </ExtendedData>
                <Point>
                    <coordinates>-89.38169861,43.07300186,0</coordinates>
                </Point>
            </Placemark>
        
            <Placemark>
                <name>New Lisbon, WI</name>
                <styleUrl>#traffic_camera</styleUrl>
                <ExtendedData>
                    <Data name="video">
                    <value>https://www.traffic-cams.com/new-lisbon/wisconsin/all</value>
                    </Data>
                </ExtendedData>
                <Point>
                    <coordinates>-90.15240479,43.88774872,0</coordinates>
                </Point>
            </Placemark>
        
            <Placemark>
                <name>Menasha, WI</name>
                <styleUrl>#traffic_camera</styleUrl>
                <ExtendedData>
                    <Data name="video">
                    <value>https://www.traffic-cams.com/menasha/wisconsin/all</value>
                    </Data>
                </ExtendedData>
                <Point>
                    <coordinates>-88.41753387,44.21116257,0</coordinates>
                </Point>
            </Placemark>
        
            <Placemark>
                <name>Stevens Point, WI</name>
                <styleUrl>#traffic_camera</styleUrl>
                <ExtendedData>
                    <Data name="video">
                    <value>https://www.traffic-cams.com/stevens-point/wisconsin/all</value>
                    </Data>
                </ExtendedData>
                <Point>
                    <coordinates>-89.5587616,44.52122116,0</coordinates>
                </Point>
            </Placemark>
        
            <Placemark>
                <name>Oconomowoc, WI</name>
                <styleUrl>#traffic_camera</styleUrl>
                <ExtendedData>
                    <Data name="video">
                    <value>https://www.traffic-cams.com/oconomowoc/wisconsin/all</value>
                    </Data>
                </ExtendedData>
                <Point>
                    <coordinates>-88.48622894,43.10949707,0</coordinates>
                </Point>
            </Placemark>
        
            <Placemark>
                <name>La Crosse, WI</name>
                <styleUrl>#traffic_camera</styleUrl>
                <ExtendedData>
                    <Data name="video">
                    <value>https://www.traffic-cams.com/la-crosse/wisconsin/all</value>
                    </Data>
                </ExtendedData>
                <Point>
                    <coordinates>-91.21749115,43.79893875,0</coordinates>
                </Point>
            </Placemark>
        
            <Placemark>
                <name>Millston, WI</name>
                <styleUrl>#traffic_camera</styleUrl>
                <ExtendedData>
                    <Data name="video">
                    <value>https://www.traffic-cams.com/millston/wisconsin/all</value>
                    </Data>
                </ExtendedData>
                <Point>
                    <coordinates>-90.64749908,44.1930542,0</coordinates>
                </Point>
            </Placemark>
        
            <Placemark>
                <name>North Freedom, WI</name>
                <styleUrl>#traffic_camera</styleUrl>
                <ExtendedData>
                    <Data name="video">
                    <value>https://www.traffic-cams.com/north-freedom/wisconsin/all</value>
                    </Data>
                </ExtendedData>
                <Point>
                    <coordinates>-89.84902191,43.41056061,0</coordinates>
                </Point>
            </Placemark>
        
            <Placemark>
                <name>Lake Nebagamon, WI</name>
                <styleUrl>#traffic_camera</styleUrl>
                <ExtendedData>
                    <Data name="video">
                    <value>https://www.traffic-cams.com/lake-nebagamon/wisconsin/all</value>
                    </Data>
                </ExtendedData>
                <Point>
                    <coordinates>-91.740242,46.50234604,0</coordinates>
                </Point>
            </Placemark>
        
            <Placemark>
                <name>Kohler, WI</name>
                <styleUrl>#traffic_camera</styleUrl>
                <ExtendedData>
                    <Data name="video">
                    <value>https://www.traffic-cams.com/kohler/wisconsin/all</value>
                    </Data>
                </ExtendedData>
                <Point>
                    <coordinates>-87.78672791,43.73809433,0</coordinates>
                </Point>
            </Placemark>
        
            <Placemark>
                <name>Beloit, WI</name>
                <styleUrl>#traffic_camera</styleUrl>
                <ExtendedData>
                    <Data name="video">
                    <value>https://www.traffic-cams.com/beloit/wisconsin/all</value>
                    </Data>
                </ExtendedData>
                <Point>
                    <coordinates>-89.0398941,42.52286911,0</coordinates>
                </Point>
            </Placemark>
        
            <Placemark>
                <name>South Milwaukee, WI</name>
                <styleUrl>#traffic_camera</styleUrl>
                <ExtendedData>
                    <Data name="video">
                    <value>https://www.traffic-cams.com/south-milwaukee/wisconsin/all</value>
                    </Data>
                </ExtendedData>
                <Point>
                    <coordinates>-87.86462402,42.91046906,0</coordinates>
                </Point>
            </Placemark>
        
            <Placemark>
                <name>Janesville, WI</name>
                <styleUrl>#traffic_camera</styleUrl>
                <ExtendedData>
                    <Data name="video">
                    <value>https://www.traffic-cams.com/janesville/wisconsin/all</value>
                    </Data>
                </ExtendedData>
                <Point>
                    <coordinates>-89.03312683,42.69154358,0</coordinates>
                </Point>
            </Placemark>
        
            <Placemark>
                <name>Sun Prairie, WI</name>
                <styleUrl>#traffic_camera</styleUrl>
                <ExtendedData>
                    <Data name="video">
                    <value>https://www.traffic-cams.com/sun-prairie/wisconsin/all</value>
                    </Data>
                </ExtendedData>
                <Point>
                    <coordinates>-89.22266388,43.18690109,0</coordinates>
                </Point>
            </Placemark>
        
            <Placemark>
                <name>Black River Falls, WI</name>
                <styleUrl>#traffic_camera</styleUrl>
                <ExtendedData>
                    <Data name="video">
                    <value>https://www.traffic-cams.com/black-river-fall</value>
                    </Data>
                </ExtendedData>
                <Point>
                    <coordinates>-90.8479538,44.29210281,0</coordinates>
                </Point>
            </Placemark>
        
            <Placemark>
                <name>Sturtevant, WI</name>
                <styleUrl>#traffic_camera</styleUrl>
                <ExtendedData>
                    <Data name="video">
                    <value>https://www.traffic-cams.com/sturtevant/wisconsin/all</value>
                    </Data>
                </ExtendedData>
                <Point>
                    <coordinates>-87.9030838,42.69673157,0</coordinates>
                </Point>
            </Placemark>
        
            <Placemark>
                <name>Milton, WI</name>
                <styleUrl>#traffic_camera</styleUrl>
                <ExtendedData>
                    <Data name="video">
                    <value>https://www.traffic-cams.com/milton/wisconsin/all</value>
                    </Data>
                </ExtendedData>
                <Point>
                    <coordinates>-88.95308685,42.77908707,0</coordinates>
                </Point>
            </Placemark>
        
            <Placemark>
                <name>Wilson, WI</name>
                <styleUrl>#traffic_camera</styleUrl>
                <ExtendedData>
                    <Data name="video">
                    <value>https://www.traffic-cams.com/wilson/wisconsin/all</value>
                    </Data>
                </ExtendedData>
                <Point>
                    <coordinates>-92.19654083,44.94657898,0</coordinates>
                </Point>
            </Placemark>
        
            <Placemark>
                <name>Oakdale, WI</name>
                <styleUrl>#traffic_camera</styleUrl>
                <ExtendedData>
                    <Data name="video">
                    <value>https://www.traffic-cams.com/oakdale/wisconsin/all</value>
                    </Data>
                </ExtendedData>
                <Point>
                    <coordinates>-90.38166809,43.95972061,0</coordinates>
                </Point>
            </Placemark>
        
            <Placemark>
                <name>Elm Grove, WI</name>
                <styleUrl>#traffic_camera</styleUrl>
                <ExtendedData>
                    <Data name="video">
                    <value>https://www.traffic-cams.com/elm-grove/wisconsin/all</value>
                    </Data>
                </ExtendedData>
                <Point>
                    <coordinates>-88.08537292,43.04794312,0</coordinates>
                </Point>
            </Placemark>
        
            <Placemark>
                <name>Green Bay, WI</name>
                <styleUrl>#traffic_camera</styleUrl>
                <ExtendedData>
                    <Data name="video">
                    <value>https://www.traffic-cams.com/green-bay/wisconsin/all</value>
                    </Data>
                </ExtendedData>
                <Point>
                    <coordinates>-88.01686859,44.48531342,0</coordinates>
                </Point>
            </Placemark>
        
            <Placemark>
                <name>De Pere, WI</name>
                <styleUrl>#traffic_camera</styleUrl>
                <ExtendedData>
                    <Data name="video">
                    <value>https://www.traffic-cams.com/de-pere/wisconsin/all</value>
                    </Data>
                </ExtendedData>
                <Point>
                    <coordinates>-88.08061218,44.43877792,0</coordinates>
                </Point>
            </Placemark>
        
            <Placemark>
                <name>Mauston, WI</name>
                <styleUrl>#traffic_camera</styleUrl>
                <ExtendedData>
                    <Data name="video">
                    <value>https://www.traffic-cams.com/mauston/wisconsin/all</value>
                    </Data>
                </ExtendedData>
                <Point>
                    <coordinates>-90.06408691,43.79338455,0</coordinates>
                </Point>
            </Placemark>
        
            <Placemark>
                <name>Woodworth, WI</name>
                <styleUrl>#traffic_camera</styleUrl>
                <ExtendedData>
                    <Data name="video">
                    <value>https://www.traffic-cams.com/woodworth/wisconsin/all</value>
                    </Data>
                </ExtendedData>
                <Point>
                    <coordinates>-88.00111389,42.55805588,0</coordinates>
                </Point>
            </Placemark>
        
            <Placemark>
                <name>Appleton, WI</name>
                <styleUrl>#traffic_camera</styleUrl>
                <ExtendedData>
                    <Data name="video">
                    <value>https://www.traffic-cams.com/appleton/wisconsin/all</value>
                    </Data>
                </ExtendedData>
                <Point>
                    <coordinates>-88.39765167,44.27732468,0</coordinates>
                </Point>
            </Placemark>
        
            <Placemark>
                <name>Merrimac, WI</name>
                <styleUrl>#traffic_camera</styleUrl>
                <ExtendedData>
                    <Data name="video">
                    <value>https://www.traffic-cams.com/merrimac/wisconsin/all</value>
                    </Data>
                </ExtendedData>
                <Point>
                    <coordinates>-89.63225555,43.38552856,0</coordinates>
                </Point>
            </Placemark>
        
            <Placemark>
                <name>Oshkosh, WI</name>
                <styleUrl>#traffic_camera</styleUrl>
                <ExtendedData>
                    <Data name="video">
                    <value>https://www.traffic-cams.com/oshkosh/wisconsin/all</value>
                    </Data>
                </ExtendedData>
                <Point>
                    <coordinates>-88.54363251,44.02196121,0</coordinates>
                </Point>
            </Placemark>
        
            <Placemark>
                <name>Warrens, WI</name>
                <styleUrl>#traffic_camera</styleUrl>
                <ExtendedData>
                    <Data name="video">
                    <value>https://www.traffic-cams.com/warrens/wisconsin/all</value>
                    </Data>
                </ExtendedData>
                <Point>
                    <coordinates>-90.49668884,44.15697098,0</coordinates>
                </Point>
            </Placemark>
        
            <Placemark>
                <name>Cottage Grove, WI</name>
                <styleUrl>#traffic_camera</styleUrl>
                <ExtendedData>
                    <Data name="video">
                    <value>https://www.traffic-cams.com/cottage-grove/wisconsin/all</value>
                    </Data>
                </ExtendedData>
                <Point>
                    <coordinates>-89.20169067,43.07840347,0</coordinates>
                </Point>
            </Placemark>
        
            <Placemark>
                <name>Richfield, WI</name>
                <styleUrl>#traffic_camera</styleUrl>
                <ExtendedData>
                    <Data name="video">
                    <value>https://www.traffic-cams.com/richfield/wisconsin/all</value>
                    </Data>
                </ExtendedData>
                <Point>
                    <coordinates>-88.21546936,43.27392578,0</coordinates>
                </Point>
            </Placemark>
        
            <Placemark>
                <name>Stetsonville, WI</name>
                <styleUrl>#traffic_camera</styleUrl>
                <ExtendedData>
                    <Data name="video">
                    <value>https://www.traffic-cams.com/stetsonville/wisconsin/all</value>
                    </Data>
                </ExtendedData>
                <Point>
                    <coordinates>-90.28292847,45.07923126,0</coordinates>
                </Point>
            </Placemark>
        
            <Placemark>
                <name>Onalaska, WI</name>
                <styleUrl>#traffic_camera</styleUrl>
                <ExtendedData>
                    <Data name="video">
                    <value>https://www.traffic-cams.com/onalaska/wisconsin/all</value>
                    </Data>
                </ExtendedData>
                <Point>
                    <coordinates>-91.23142242,43.89739227,0</coordinates>
                </Point>
            </Placemark>
        
            <Placemark>
                <name>Wisconsin Dells, WI</name>
                <styleUrl>#traffic_camera</styleUrl>
                <ExtendedData>
                    <Data name="video">
                    <value>https://www.traffic-cams.com/wisconsin-dells/wisconsin/all</value>
                    </Data>
                </ExtendedData>
                <Point>
                    <coordinates>-89.76651764,43.65078735,0</coordinates>
                </Point>
            </Placemark>
        
            <Placemark>
                <name>Elkhart Lake, WI</name>
                <styleUrl>#traffic_camera</styleUrl>
                <ExtendedData>
                    <Data name="video">
                    <value>https://www.traffic-cams.com/elkhart-lake/wisconsin/all</value>
                    </Data>
                </ExtendedData>
                <Point>
                    <coordinates>-87.97666931,43.84355164,0</coordinates>
                </Point>
            </Placemark>
        
            <Placemark>
                <name>Verona, WI</name>
                <styleUrl>#traffic_camera</styleUrl>
                <ExtendedData>
                    <Data name="video">
                    <value>https://www.traffic-cams.com/verona/wisconsin/all</value>
                    </Data>
                </ExtendedData>
                <Point>
                    <coordinates>-89.55224609,42.99991226,0</coordinates>
                </Point>
            </Placemark>
        
            <Placemark>
                <name>Brookfield, WI</name>
                <styleUrl>#traffic_camera</styleUrl>
                <ExtendedData>
                    <Data name="video">
                    <value>https://www.traffic-cams.com/brookfield/wisconsin/all</value>
                    </Data>
                </ExtendedData>
                <Point>
                    <coordinates>-88.09799957,43.06217194,0</coordinates>
                </Point>
            </Placemark>
        
            <Placemark>
                <name>Phelps, WI</name>
                <styleUrl>#traffic_camera</styleUrl>
                <ExtendedData>
                    <Data name="video">
                    <value>https://www.traffic-cams.com/phelps/wisconsin/all</value>
                    </Data>
                </ExtendedData>
                <Point>
                    <coordinates>-89.0815506,46.06447983,0</coordinates>
                </Point>
            </Placemark>
        
            <Placemark>
                <name>Kaukauna, WI</name>
                <styleUrl>#traffic_camera</styleUrl>
                <ExtendedData>
                    <Data name="video">
                    <value>https://www.traffic-cams.com/kaukauna/wisconsin/all</value>
                    </Data>
                </ExtendedData>
                <Point>
                    <coordinates>-88.27169037,44.29560852,0</coordinates>
                </Point>
            </Placemark>
        
            <Placemark>
                <name>Franksville, WI</name>
                <styleUrl>#traffic_camera</styleUrl>
                <ExtendedData>
                    <Data name="video">
                    <value>https://www.traffic-cams.com/franksville/wisconsin/all</value>
                    </Data>
                </ExtendedData>
                <Point>
                    <coordinates>-87.98727417,42.78589249,0</coordinates>
                </Point>
            </Placemark>
        
            <Placemark>
                <name>Menomonie, WI</name>
                <styleUrl>#traffic_camera</styleUrl>
                <ExtendedData>
                    <Data name="video">
                    <value>https://www.traffic-cams.com/menomonie/wisconsin/all</value>
                    </Data>
                </ExtendedData>
                <Point>
                    <coordinates>-91.92651367,44.87181854,0</coordinates>
                </Point>
            </Placemark>
        
            <Placemark>
                <name>Altoona, WI</name>
                <styleUrl>#traffic_camera</styleUrl>
                <ExtendedData>
                    <Data name="video">
                    <value>https://www.traffic-cams.com/altoona/wisconsin/all</value>
                    </Data>
                </ExtendedData>
                <Point>
                    <coordinates>-91.43824768,44.8021431,0</coordinates>
                </Point>
            </Placemark>
        
            <Placemark>
                <name>Kenosha, WI</name>
                <styleUrl>#traffic_camera</styleUrl>
                <ExtendedData>
                    <Data name="video">
                    <value>https://www.traffic-cams.com/kenosha/wisconsin/all</value>
                    </Data>
                </ExtendedData>
                <Point>
                    <coordinates>-87.82994843,42.60522842,0</coordinates>
                </Point>
            </Placemark>
        
            <Placemark>
                <name>Sturgeon Bay, WI</name>
                <styleUrl>#traffic_camera</styleUrl>
                <ExtendedData>
                    <Data name="video">
                    <value>https://www.traffic-cams.com/sturgeon-bay/wisconsin/all</value>
                    </Data>
                </ExtendedData>
                <Point>
                    <coordinates>-87.37531281,44.84384155,0</coordinates>
                </Point>
            </Placemark>
        
            <Placemark>
                <name>Lake Mills, WI</name>
                <styleUrl>#traffic_camera</styleUrl>
                <ExtendedData>
                    <Data name="video">
                    <value>https://www.traffic-cams.com/lake-mills/wisconsin/all</value>
                    </Data>
                </ExtendedData>
                <Point>
                    <coordinates>-88.91333771,43.0815773,0</coordinates>
                </Point>
            </Placemark>
        
            <Placemark>
                <name>New Berlin, WI</name>
                <styleUrl>#traffic_camera</styleUrl>
                <ExtendedData>
                    <Data name="video">
                    <value>https://www.traffic-cams.com/new-berlin/wisconsin/all</value>
                    </Data>
                </ExtendedData>
                <Point>
                    <coordinates>-88.15527344,42.97396851,0</coordinates>
                </Point>
            </Placemark>
        
            <Placemark>
                <name>Tomah, WI</name>
                <styleUrl>#traffic_camera</styleUrl>
                <ExtendedData>
                    <Data name="video">
                    <value>https://www.traffic-cams.com/tomah/wisconsin/all</value>
                    </Data>
                </ExtendedData>
                <Point>
                    <coordinates>-90.49170685,43.9948349,0</coordinates>
                </Point>
            </Placemark>
        
            <Placemark>
                <name>Algoma, WI</name>
                <styleUrl>#traffic_camera</styleUrl>
                <ExtendedData>
                    <Data name="video">
                    <value>https://www.traffic-cams.com/algoma/wisconsin/all</value>
                    </Data>
                </ExtendedData>
                <Point>
                    <coordinates>-87.45779419,44.6100502,0</coordinates>
                </Point>
            </Placemark>
        
            <Placemark>
                <name>Hustler, WI</name>
                <styleUrl>#traffic_camera</styleUrl>
                <ExtendedData>
                    <Data name="video">
                    <value>https://www.traffic-cams.com/hustler/wisconsin/all</value>
                    </Data>
                </ExtendedData>
                <Point>
                    <coordinates>-90.27138519,43.92250061,0</coordinates>
                </Point>
            </Placemark>
        
            <Placemark>
                <name>Middleton, WI</name>
                <styleUrl>#traffic_camera</styleUrl>
                <ExtendedData>
                    <Data name="video">
                    <value>https://www.traffic-cams.com/middleton/wisconsin/all</value>
                    </Data>
                </ExtendedData>
                <Point>
                    <coordinates>-89.50725555,43.10519791,0</coordinates>
                </Point>
            </Placemark>
        
            <Placemark>
                <name>Superior, WI</name>
                <styleUrl>#traffic_camera</styleUrl>
                <ExtendedData>
                    <Data name="video">
                    <value>https://www.traffic-cams.com/superior/wisconsin/all</value>
                    </Data>
                </ExtendedData>
                <Point>
                    <coordinates>-92.09117126,46.70155334,0</coordinates>
                </Point>
            </Placemark>
        
            <Placemark>
                <name>Milwaukee, WI</name>
                <styleUrl>#traffic_camera</styleUrl>
                <ExtendedData>
                    <Data name="video">
                    <value>https://www.traffic-cams.com/milwaukee/wisconsin/all</value>
                    </Data>
                </ExtendedData>
                <Point>
                    <coordinates>-87.91510773,43.03472137,0</coordinates>
                </Point>
            </Placemark>
        
            <Placemark>
                <name>Springbrook, WI</name>
                <styleUrl>#traffic_camera</styleUrl>
                <ExtendedData>
                    <Data name="video">
                    <value>https://www.traffic-cams.com/springbrook/wisconsin/all</value>
                    </Data>
                </ExtendedData>
                <Point>
                    <coordinates>-91.67773438,45.96038437,0</coordinates>
                </Point>
            </Placemark>
        
            <Placemark>
                <name>Eau Claire, WI</name>
                <styleUrl>#traffic_camera</styleUrl>
                <ExtendedData>
                    <Data name="video">
                    <value>https://www.traffic-cams.com/eau-claire/wisconsin/all</value>
                    </Data>
                </ExtendedData>
                <Point>
                    <coordinates>-91.48768616,44.78397369,0</coordinates>
                </Point>
            </Placemark>
        
            <Placemark>
                <name>Hales Corners, WI</name>
                <styleUrl>#traffic_camera</styleUrl>
                <ExtendedData>
                    <Data name="video">
                    <value>https://www.traffic-cams.com/hales-corners/wisconsin/all</value>
                    </Data>
                </ExtendedData>
                <Point>
                    <coordinates>-88.0503006,42.94103241,0</coordinates>
                </Point>
            </Placemark>
        
            <Placemark>
                <name>Theresa, WI</name>
                <styleUrl>#traffic_camera</styleUrl>
                <ExtendedData>
                    <Data name="video">
                    <value>https://www.traffic-cams.com/theresa/wisconsin/all</value>
                    </Data>
                </ExtendedData>
                <Point>
                    <coordinates>-88.44776917,43.50447845,0</coordinates>
                </Point>
            </Placemark>
        
            <Placemark>
                <name>Hubertus, WI</name>
                <styleUrl>#traffic_camera</styleUrl>
                <ExtendedData>
                    <Data name="video">
                    <value>https://www.traffic-cams.com/hubertus/wisconsin/all</value>
                    </Data>
                </ExtendedData>
                <Point>
                    <coordinates>-88.23114777,43.23426819,0</coordinates>
                </Point>
            </Placemark>
        
            <Placemark>
                <name>Germantown, WI</name>
                <styleUrl>#traffic_camera</styleUrl>
                <ExtendedData>
                    <Data name="video">
                    <value>https://www.traffic-cams.com/germantown/wisconsin/all</value>
                    </Data>
                </ExtendedData>
                <Point>
                    <coordinates>-88.11650848,43.21887207,0</coordinates>
                </Point>
            </Placemark>
        
            <Placemark>
                <name>Big Bend, WI</name>
                <styleUrl>#traffic_camera</styleUrl>
                <ExtendedData>
                    <Data name="video">
                    <value>https://www.traffic-cams.com/big-bend/wisconsin/all</value>
                    </Data>
                </ExtendedData>
                <Point>
                    <coordinates>-88.21218109,42.88846207,0</coordinates>
                </Point>
            </Placemark>
        
            <Placemark>
                <name>Windsor, WI</name>
                <styleUrl>#traffic_camera</styleUrl>
                <ExtendedData>
                    <Data name="video">
                    <value>https://www.traffic-cams.com/windsor/wisconsin/all</value>
                    </Data>
                </ExtendedData>
                <Point>
                    <coordinates>-89.34146881,43.21412277,0</coordinates>
                </Point>
            </Placemark>
        
            <Placemark>
                <name>Wausau, WI</name>
                <styleUrl>#traffic_camera</styleUrl>
                <ExtendedData>
                    <Data name="video">
                    <value>https://www.traffic-cams.com/wausau/wisconsin/all</value>
                    </Data>
                </ExtendedData>
                <Point>
                    <coordinates>-89.63395691,44.96343231,0</coordinates>
                </Point>
            </Placemark>
        
            <Placemark>
                <name>Fond Du Lac, WI</name>
                <styleUrl>#traffic_camera</styleUrl>
                <ExtendedData>
                    <Data name="video">
                    <value>https://www.traffic-cams.com/fond-du-lac/wisconsin/all</value>
                    </Data>
                </ExtendedData>
                <Point>
                    <coordinates>-88.42914581,43.77044678,0</coordinates>
                </Point>
            </Placemark>
        
            <Placemark>
                <name>Lake Delton, WI</name>
                <styleUrl>#traffic_camera</styleUrl>
                <ExtendedData>
                    <Data name="video">
                    <value>https://www.traffic-cams.com/lake-delton/wisconsin/all</value>
                    </Data>
                </ExtendedData>
                <Point>
                    <coordinates>-89.79360962,43.60111237,0</coordinates>
                </Point>
            </Placemark>
        
            <Placemark>
                <name>Winnebago, WI</name>
                <styleUrl>#traffic_camera</styleUrl>
                <ExtendedData>
                    <Data name="video">
                    <value>https://www.traffic-cams.com/winnebago/wisconsin/all</value>
                    </Data>
                </ExtendedData>
                <Point>
                    <coordinates>-88.52500153,44.07583237,0</coordinates>
                </Point>
            </Placemark>
        
            <Placemark>
                <name>Pleasant Prairie, WI</name>
                <styleUrl>#traffic_camera</styleUrl>
                <ExtendedData>
                    <Data name="video">
                    <value>https://www.traffic-cams.com/pleasant-prairie/wisconsin/all</value>
                    </Data>
                </ExtendedData>
                <Point>
                    <coordinates>-87.88569641,42.52769852,0</coordinates>
                </Point>
            </Placemark>
        
            <Placemark>
                <name>Greendale, WI</name>
                <styleUrl>#traffic_camera</styleUrl>
                <ExtendedData>
                    <Data name="video">
                    <value>https://www.traffic-cams.com/greendale/wisconsin/all</value>
                    </Data>
                </ExtendedData>
                <Point>
                    <coordinates>-87.99427795,42.93729401,0</coordinates>
                </Point>
            </Placemark>
        
            <Placemark>
                <name>Johnson Creek, WI</name>
                <styleUrl>#traffic_camera</styleUrl>
                <ExtendedData>
                    <Data name="video">
                    <value>https://www.traffic-cams.com/johnson-creek/wisconsin/all</value>
                    </Data>
                </ExtendedData>
                <Point>
                    <coordinates>-88.78359985,43.07505035,0</coordinates>
                </Point>
            </Placemark>
        
            <Placemark>
                <name>Menomonee Falls, WI</name>
                <styleUrl>#traffic_camera</styleUrl>
                <ExtendedData>
                    <Data name="video">
                    <value>https://www.traffic-cams.com/menomonee-fall</value>
                    </Data>
                </ExtendedData>
                <Point>
                    <coordinates>-88.11277771,43.16017532,0</coordinates>
                </Point>
            </Placemark>
        
            <Placemark>
                <name>Suamico, WI</name>
                <styleUrl>#traffic_camera</styleUrl>
                <ExtendedData>
                    <Data name="video">
                    <value>https://www.traffic-cams.com/suamico/wisconsin/all</value>
                    </Data>
                </ExtendedData>
                <Point>
                    <coordinates>-88.03916931,44.63194275,0</coordinates>
                </Point>
            </Placemark>
        
            <Placemark>
                <name>Butler, WI</name>
                <styleUrl>#traffic_camera</styleUrl>
                <ExtendedData>
                    <Data name="video">
                    <value>https://www.traffic-cams.com/butler/wisconsin/all</value>
                    </Data>
                </ExtendedData>
                <Point>
                    <coordinates>-88.07104492,43.1054039,0</coordinates>
                </Point>
            </Placemark>
        
            <Placemark>
                <name>Osseo, WI</name>
                <styleUrl>#traffic_camera</styleUrl>
                <ExtendedData>
                    <Data name="video">
                    <value>https://www.traffic-cams.com/osseo/wisconsin/all</value>
                    </Data>
                </ExtendedData>
                <Point>
                    <coordinates>-91.21914673,44.55992126,0</coordinates>
                </Point>
            </Placemark>
        
            <Placemark>
                <name>Poynette, WI</name>
                <styleUrl>#traffic_camera</styleUrl>
                <ExtendedData>
                    <Data name="video">
                    <value>https://www.traffic-cams.com/poynette/wisconsin/all</value>
                    </Data>
                </ExtendedData>
                <Point>
                    <coordinates>-89.41885376,43.40134048,0</coordinates>
                </Point>
            </Placemark>
        
            <Placemark>
                <name>Delafield, WI</name>
                <styleUrl>#traffic_camera</styleUrl>
                <ExtendedData>
                    <Data name="video">
                    <value>https://www.traffic-cams.com/delafield/wisconsin/all</value>
                    </Data>
                </ExtendedData>
                <Point>
                    <coordinates>-88.39724731,43.05001831,0</coordinates>
                </Point>
            </Placemark>
        
            <Placemark>
                <name>Elk Mound, WI</name>
                <styleUrl>#traffic_camera</styleUrl>
                <ExtendedData>
                    <Data name="video">
                    <value>https://www.traffic-cams.com/elk-mound/wisconsin/all</value>
                    </Data>
                </ExtendedData>
                <Point>
                    <coordinates>-91.67523193,44.86697388,0</coordinates>
                </Point>
            </Placemark>
        
            <Placemark>
                <name>Chippewa Falls, WI</name>
                <styleUrl>#traffic_camera</styleUrl>
                <ExtendedData>
                    <Data name="video">
                    <value>https://www.traffic-cams.com/chippewa-fall</value>
                    </Data>
                </ExtendedData>
                <Point>
                    <coordinates>-91.38437653,44.93220139,0</coordinates>
                </Point>
            </Placemark>
        
            <Placemark>
                <name>Oak Creek, WI</name>
                <styleUrl>#traffic_camera</styleUrl>
                <ExtendedData>
                    <Data name="video">
                    <value>https://www.traffic-cams.com/oak-creek/wisconsin/all</value>
                    </Data>
                </ExtendedData>
                <Point>
                    <coordinates>-87.90266418,42.88916016,0</coordinates>
                </Point>
            </Placemark>
        
            <Placemark>
                <name>Cudahy, WI</name>
                <styleUrl>#traffic_camera</styleUrl>
                <ExtendedData>
                    <Data name="video">
                    <value>https://www.traffic-cams.com/cudahy/wisconsin/all</value>
                    </Data>
                </ExtendedData>
                <Point>
                    <coordinates>-87.86198425,42.94897461,0</coordinates>
                </Point>
            </Placemark>
        
            <Placemark>
                <name>Waukesha, WI</name>
                <styleUrl>#traffic_camera</styleUrl>
                <ExtendedData>
                    <Data name="video">
                    <value>https://www.traffic-cams.com/waukesha/wisconsin/all</value>
                    </Data>
                </ExtendedData>
                <Point>
                    <coordinates>-88.21955872,42.99930573,0</coordinates>
                </Point>
            </Placemark>
        
            <Placemark>
                <name>Caledonia, WI</name>
                <styleUrl>#traffic_camera</styleUrl>
                <ExtendedData>
                    <Data name="video">
                    <value>https://www.traffic-cams.com/caledonia/wisconsin/all</value>
                    </Data>
                </ExtendedData>
                <Point>
                    <coordinates>-87.9227829,42.82947159,0</coordinates>
                </Point>
            </Placemark>
        
            <Placemark>
                <name>Allenton, WI</name>
                <styleUrl>#traffic_camera</styleUrl>
                <ExtendedData>
                    <Data name="video">
                    <value>https://www.traffic-cams.com/all</value>
                    </Data>
                </ExtendedData>
                <Point>
                    <coordinates>-88.35390472,43.46806335,0</coordinates>
                </Point>
            </Placemark>
        
            <Placemark>
                <name>Arlington, WI</name>
                <styleUrl>#traffic_camera</styleUrl>
                <ExtendedData>
                    <Data name="video">
                    <value>https://www.traffic-cams.com/arlington/wisconsin/all</value>
                    </Data>
                </ExtendedData>
                <Point>
                    <coordinates>-89.36308289,43.32686615,0</coordinates>
                </Point>
            </Placemark>
        
            <Placemark>
                <name>Sullivan, WI</name>
                <styleUrl>#traffic_camera</styleUrl>
                <ExtendedData>
                    <Data name="video">
                    <value>https://www.traffic-cams.com/sullivan/wisconsin/all</value>
                    </Data>
                </ExtendedData>
                <Point>
                    <coordinates>-88.60256958,42.99824905,0</coordinates>
                </Point>
            </Placemark>
        
            <Placemark>
                <name>Two Rivers, WI</name>
                <styleUrl>#traffic_camera</styleUrl>
                <ExtendedData>
                    <Data name="video">
                    <value>https://www.traffic-cams.com/two-rivers/wisconsin/all</value>
                    </Data>
                </ExtendedData>
                <Point>
                    <coordinates>-87.58550262,44.166008,0</coordinates>
                </Point>
            </Placemark>
        
            <Placemark>
                <name>Benet Lake, WI</name>
                <styleUrl>#traffic_camera</styleUrl>
                <ExtendedData>
                    <Data name="video">
                    <value>https://www.traffic-cams.com/benet-lake/wisconsin/all</value>
                    </Data>
                </ExtendedData>
                <Point>
                    <coordinates>-88.08166504,42.4980545,0</coordinates>
                </Point>
            </Placemark>
        
            <Placemark>
                <name>Camp Douglas, WI</name>
                <styleUrl>#traffic_camera</styleUrl>
                <ExtendedData>
                    <Data name="video">
                    <value>https://www.traffic-cams.com/camp-douglas/wisconsin/all</value>
                    </Data>
                </ExtendedData>
                <Point>
                    <coordinates>-90.26885986,43.93670654,0</coordinates>
                </Point>
            </Placemark>
        
            <Placemark>
                <name>Lake Geneva, WI</name>
                <styleUrl>#traffic_camera</styleUrl>
                <ExtendedData>
                    <Data name="video">
                    <value>https://www.traffic-cams.com/lake-geneva/wisconsin/all</value>
                    </Data>
                </ExtendedData>
                <Point>
                    <coordinates>-88.45537567,42.58811188,0</coordinates>
                </Point>
            </Placemark>
        
            <Placemark>
                <name>Morrisonville, WI</name>
                <styleUrl>#traffic_camera</styleUrl>
                <ExtendedData>
                    <Data name="video">
                    <value>https://www.traffic-cams.com/morrisonville/wisconsin/all</value>
                    </Data>
                </ExtendedData>
                <Point>
                    <coordinates>-89.35944366,43.27722168,0</coordinates>
                </Point>
            </Placemark>
        
            <Placemark>
                <name>Knapp, WI</name>
                <styleUrl>#traffic_camera</styleUrl>
                <ExtendedData>
                    <Data name="video">
                    <value>https://www.traffic-cams.com/knapp/wisconsin/all</value>
                    </Data>
                </ExtendedData>
                <Point>
                    <coordinates>-92.07520294,44.95449448,0</coordinates>
                </Point>
            </Placemark>
        
            <Placemark>
                <name>Franklin, WI</name>
                <styleUrl>#traffic_camera</styleUrl>
                <ExtendedData>
                    <Data name="video">
                    <value>https://www.traffic-cams.com/franklin/wisconsin/all</value>
                    </Data>
                </ExtendedData>
                <Point>
                    <coordinates>-88.00858307,42.90172958,0</coordinates>
                </Point>
            </Placemark>
        
        </Document>
</kml>
